,borough,contributing_factor_vehicle_1,contributing_factor_vehicle_2,cross_street_name,date,latitude,longitude,number_of_cyclist_injured,number_of_cyclist_killed,number_of_pedestrians_injured,number_of_pedestrians_killed,off_street_name,on_street_name,time,unique_key,vehicle_type_code1,vehicle_type_code2
0,BROOKLYN,View Obstructed/Limited,Unspecified,733       FULTON STREET                 ,2017-03-20,40.686623,-73.97518000000001,1,0,0,0,,,11.5,3635627,SPORT UTILITY / STATION WAGON,SPORT UTILITY / STATION WAGON
1,MANHATTAN,Driver Inattention/Distraction,Unspecified,,2017-03-20,40.71436,-74.00839,1,0,0,0,WARREN STREET,CHURCH STREET                   ,13.0,3635630,SPORT UTILITY / STATION WAGON,BICYCLE
2,BRONX,Unsafe Lane Changing,,,2017-03-20,40.81162,-73.93117,1,0,0,0,EAST 135 STREET,PARK AVENUE                     ,8.75,3635736,BICYCLE,
3,,Failure to Yield Right-of-Way,Unspecified,,2017-03-20,,,1,0,0,0,,101 AVENUE                      ,7.083333333333333,3635863,BICYCLE,SPORT UTILITY / STATION WAGON
4,BROOKLYN,Failure to Yield Right-of-Way,Unspecified,,2017-03-20,40.71076,-73.95314,1,0,0,0,SOUTH 1 STREET,BORINQUEN PLACE                 ,17.0,3635931,SPORT UTILITY / STATION WAGON,BICYCLE
5,MANHATTAN,Traffic Control Disregarded,Unspecified,,2017-03-20,40.767340000000004,-73.96868,1,0,0,0,MADISON AVENUE,EAST 65 STREET                  ,18.333333333333332,3636096,BICYCLE,PASSENGER VEHICLE
6,,Pedestrian/Bicyclist/Other Pedestrian Error/Confusion,Pedestrian/Bicyclist/Other Pedestrian Error/Confusion,,2017-03-20,40.68857,-73.8757,1,0,0,0,,JAMAICA AVENUE                  ,18.5,3636128,BICYCLE,SPORT UTILITY / STATION WAGON
7,MANHATTAN,Driver Inattention/Distraction,Following Too Closely,409       EAST 14 STREET                ,2017-03-20,40.73118,-73.9821,1,0,0,0,,,22.333333333333332,3636151,SPORT UTILITY / STATION WAGON,BICYCLE
8,MANHATTAN,Driver Inattention/Distraction,Unspecified,,2017-03-12,40.75425,-73.96899,1,0,0,0,EAST 49 STREET,2 AVENUE                        ,12.6,3636869,BICYCLE,
9,BROOKLYN,Unspecified,Unspecified,52        7 AVENUE                      ,2017-03-03,40.67613,-73.97434,2,0,0,0,,,11.583333333333334,3626472,PASSENGER VEHICLE,BICYCLE
10,,Driver Inattention/Distraction,Driver Inattention/Distraction,,2017-03-21,40.77077,-73.91727,1,0,0,0,31 STREET,ASTORIA BOULEVARD               ,5.866666666666667,3636039,BICYCLE,SPORT UTILITY / STATION WAGON
11,QUEENS,Driver Inattention/Distraction,Unspecified,,2017-03-21,40.755703000000004,-73.86624,1,0,0,0,34 AVENUE,102 STREET                      ,10.166666666666666,3636274,BICYCLE,
12,,Pedestrian/Bicyclist/Other Pedestrian Error/Confusion,Unspecified,,2017-03-21,40.674114,-73.88975,1,0,0,0,,GLENMORE AVENUE                 ,13.0,3636406,SPORT UTILITY / STATION WAGON,BICYCLE
13,QUEENS,Passing or Lane Usage Improper,Unspecified,,2017-03-21,40.703873,-73.91256,1,0,0,0,CYPRESS AVENUE,BLEECKER STREET                 ,14.666666666666666,3636562,BICYCLE,SPORT UTILITY / STATION WAGON
14,BROOKLYN,Passing or Lane Usage Improper,Unspecified,,2017-03-21,40.70149,-73.95193,1,0,0,0,LORIMER STREET,MARCY AVENUE                    ,10.666666666666666,3636728,PASSENGER VEHICLE,BICYCLE
15,MANHATTAN,Passenger Distraction,Following Too Closely,,2017-03-21,40.7453,-73.986855,1,0,0,0,5 AVENUE,WEST 29 STREET                  ,9.466666666666667,3636739,TAXI,BICYCLE
16,MANHATTAN,Failure to Yield Right-of-Way,Unspecified,192       LEXINGTON AVENUE              ,2017-03-21,40.74492,-73.98082,1,0,0,0,,,20.0,3636740,BICYCLE,PASSENGER VEHICLE
17,BRONX,Turning Improperly,Unspecified,,2017-03-21,40.809776,-73.92241,1,0,0,0,WILLIS AVENUE,EAST 139 STREET                 ,7.916666666666667,3636767,PASSENGER VEHICLE,BICYCLE
18,BROOKLYN,Driver Inattention/Distraction,Unspecified,,2017-03-21,40.59355,-73.98465,1,0,0,0,AVENUE V,STILLWELL AVENUE                ,12.5,3636850,BICYCLE,
19,BROOKLYN,Unspecified,,,2017-03-21,40.630478000000004,-73.9861,1,0,0,0,16 AVENUE,50 STREET                       ,0.5,3636987,BICYCLE,
20,BROOKLYN,Unspecified,Unspecified,,2017-03-21,40.65415,-73.949936,1,0,0,0,LENOX ROAD,NOSTRAND AVENUE                 ,17.25,3637433,PASSENGER VEHICLE,BICYCLE
21,BROOKLYN,Pavement Slippery,Failure to Yield Right-of-Way,,2017-03-21,40.650467,-73.92443,1,0,0,0,EAST 56 STREET,SNYDER AVENUE                   ,21.266666666666666,3637435,BICYCLE,PASSENGER VEHICLE
22,BROOKLYN,Passing or Lane Usage Improper,Pedestrian/Bicyclist/Other Pedestrian Error/Confusion,,2017-03-21,40.630512,-73.957306,1,0,0,0,OCEAN AVENUE,AVENUE H                        ,11.816666666666666,3637458,PASSENGER VEHICLE,BICYCLE
23,BROOKLYN,Following Too Closely,Unspecified,,2017-03-19,40.633995,-73.94778000000001,1,0,0,0,GLENWOOD ROAD,NOSTRAND AVENUE                 ,8.083333333333334,3637486,PASSENGER VEHICLE,BICYCLE
24,MANHATTAN,Following Too Closely,Unspecified,,2017-03-20,40.73072,-73.98906,1,0,0,0,EAST 10 STREET,3 AVENUE                        ,16.833333333333332,3637497,BICYCLE,
25,BROOKLYN,Failure to Yield Right-of-Way,Unspecified,268       9 STREET                      ,2017-03-22,40.669990000000006,-73.98801999999999,1,0,0,0,,,14.666666666666666,3637234,BICYCLE,PASSENGER VEHICLE
26,BROOKLYN,Alcohol Involvement,Unspecified,,2017-03-22,40.681835,-73.97584,1,0,0,0,FLATBUSH AVENUE,DEAN STREET                     ,20.5,3637240,BICYCLE,PASSENGER VEHICLE
27,MANHATTAN,Driver Inattention/Distraction,Unsafe Lane Changing,,2017-03-23,40.714478,-74.01354,1,0,0,0,BARCLAY STREET,WEST STREET                     ,10.0,3637475,BICYCLE,SPORT UTILITY / STATION WAGON
28,,Unsafe Lane Changing,Unspecified,,2017-03-22,40.737359999999995,-73.99685,1,0,0,0,,WEST 14 STREET                  ,15.5,3637609,PASSENGER VEHICLE,BICYCLE
29,,Aggressive Driving/Road Rage,Unspecified,,2017-03-23,40.62332,-73.99713,1,0,0,0,,65 STREET                       ,14.25,3637742,BICYCLE,PASSENGER VEHICLE
30,,Unspecified,Unspecified,,2017-03-23,40.714462,-73.98535,1,0,0,0,,EAST BROADWAY                   ,9.583333333333334,3637895,BICYCLE,SPORT UTILITY / STATION WAGON
31,,Pedestrian/Bicyclist/Other Pedestrian Error/Confusion,,,2017-03-22,40.712790000000005,-73.9693,1,0,0,0,,,22.0,3637905,BICYCLE,
32,BROOKLYN,Pedestrian/Bicyclist/Other Pedestrian Error/Confusion,Pedestrian/Bicyclist/Other Pedestrian Error/Confusion,,2017-03-23,40.69897,-73.95702,1,0,0,0,BEDFORD AVENUE,FLUSHING AVENUE                 ,16.466666666666665,3637907,BICYCLE,PICK-UP TRUCK
33,,Unspecified,Unspecified,,2017-03-23,40.815327,-73.93576,1,0,0,0,,WEST 139 STREET                 ,13.0,3638064,PASSENGER VEHICLE,BICYCLE
34,BROOKLYN,Pedestrian/Bicyclist/Other Pedestrian Error/Confusion,Unspecified,,2017-03-21,40.65415,-73.949936,1,0,0,0,LENOX ROAD,NOSTRAND AVENUE                 ,17.25,3638100,SPORT UTILITY / STATION WAGON,PASSENGER VEHICLE
35,MANHATTAN,Driver Inattention/Distraction,Unspecified,,2017-03-23,40.795456,-73.96564000000001,1,0,0,0,WEST 100 STREET,COLUMBUS AVENUE                 ,11.25,3638105,PASSENGER VEHICLE,BICYCLE
36,,Unspecified,,,2017-02-19,40.712616,-73.96951,1,0,1,0,,,23.2,3618839,BICYCLE,
37,,Failure to Yield Right-of-Way,Unspecified,,2017-03-23,40.778778,-73.90018,1,0,0,0,,38 STREET                       ,15.333333333333334,3638293,BICYCLE,PASSENGER VEHICLE
38,QUEENS,Glare,Unspecified,,2017-03-23,40.757492,-73.93911,1,0,0,0,21 STREET,38 AVENUE                       ,18.5,3638308,PICK-UP TRUCK,BICYCLE
39,,Traffic Control Disregarded,Failure to Yield Right-of-Way,,2017-03-24,40.753322999999995,-73.90669,1,0,0,0,,NORTHERN BOULEVARD              ,6.75,3638316,BICYCLE,SPORT UTILITY / STATION WAGON
40,BRONX,Unspecified,Unspecified,,2017-03-23,40.810726,-73.92465,1,0,0,0,EAST 139 STREET,ALEXANDER AVENUE                ,0.0,3638333,BICYCLE,
41,MANHATTAN,Unspecified,Unspecified,15        EAST 128 STREET               ,2017-03-24,40.808033,-73.940125,1,0,0,0,,,8.0,3638485,BICYCLE,SPORT UTILITY / STATION WAGON
42,BRONX,Unspecified,,,2017-03-24,40.88078,-73.88346999999999,1,0,0,0,EAST 208 STREET,JEROME AVENUE                   ,16.833333333333332,3638752,BICYCLE,
43,MANHATTAN,Passing or Lane Usage Improper,Unspecified,,2017-03-24,40.747234000000006,-73.99337,1,0,0,0,7 AVENUE,WEST 28 STREET                  ,9.0,3638923,BICYCLE,TAXI
44,,Unspecified,Unspecified,,2016-06-11,40.83527,-73.832245,0,1,0,0,,EAST TREMONT AVENUE             ,0.7,3638938,BICYCLE,SPORT UTILITY / STATION WAGON
45,QUEENS,Traffic Control Disregarded,Unspecified,,2017-03-24,40.713287,-73.87163000000001,1,0,0,0,80 STREET,METROPOLITAN AVENUE             ,19.25,3638969,BICYCLE,SPORT UTILITY / STATION WAGON
46,BROOKLYN,Driver Inattention/Distraction,Driver Inattention/Distraction,,2017-03-21,40.64844,-73.88242,1,0,0,0,PENNSYLVANIA AVENUE,TWIN PINES DRIVE                ,16.333333333333332,3639085,PASSENGER VEHICLE,BICYCLE
47,BROOKLYN,Turning Improperly,Unspecified,2615      EAST 17 STREET                ,2017-03-24,40.58778,-73.95238,1,0,0,0,,,11.0,3639488,BICYCLE,PASSENGER VEHICLE
48,BROOKLYN,Failure to Yield Right-of-Way,Unspecified,,2017-03-23,40.595707,-73.94296999999999,1,0,0,0,EAST 28 STREET,AVENUE W                        ,17.283333333333335,3639512,BICYCLE,SPORT UTILITY / STATION WAGON
49,,Driver Inattention/Distraction,,,2017-03-24,40.780437,-73.94989,1,0,0,0,,2 AVENUE                        ,22.5,3639744,BICYCLE,BICYCLE
50,,Driver Inattention/Distraction,Unspecified,,2017-03-25,,,1,0,0,0,GRAND CENTRAL PARKWAY,MAIN STREET                     ,3.8333333333333335,3638783,SPORT UTILITY / STATION WAGON,BICYCLE
51,,Unspecified,,101       WEST DRIVE                    ,2017-03-25,,,1,0,0,0,,,0.16666666666666666,3638970,BICYCLE,
52,,Driver Inattention/Distraction,Unspecified,,2017-03-25,,,1,0,0,0,,EAST BEDFORD PARK BOULEVARD     ,21.0,3639055,PASSENGER VEHICLE,BICYCLE
53,QUEENS,Passing or Lane Usage Improper,Unspecified,34-33     32 STREET                     ,2017-03-25,40.758697999999995,-73.92693,1,0,0,0,,,16.166666666666668,3639593,SPORT UTILITY / STATION WAGON,BICYCLE
54,,Failure to Yield Right-of-Way,Unspecified,,2017-03-25,40.757805,-73.93623000000001,1,0,0,0,,23 STREET                       ,23.0,3639605,PASSENGER VEHICLE,BICYCLE
55,MANHATTAN,Passing or Lane Usage Improper,Unspecified,,2017-03-25,40.768485999999996,-73.955505,1,0,0,0,EAST 73 STREET,1 AVENUE                        ,0.6666666666666666,3639756,BICYCLE,SPORT UTILITY / STATION WAGON
56,BRONX,Passing or Lane Usage Improper,Passenger Distraction,,2017-03-24,40.84541,-73.891136,1,0,0,0,EAST TREMONT AVENUE,CROTONA AVENUE                  ,12.0,3639782,BICYCLE,PASSENGER VEHICLE
57,MANHATTAN,Failure to Yield Right-of-Way,Unspecified,,2017-03-24,40.760822,-73.99831999999999,1,0,0,0,11 AVENUE,WEST 42 STREET                  ,18.633333333333333,3639802,TAXI,BICYCLE
58,BRONX,Brakes Defective,Unspecified,,2017-03-25,40.824696,-73.83919,1,0,0,0,LAFAYETTE AVENUE,BRUSH AVENUE                    ,9.933333333333334,3639830,BICYCLE,PASSENGER VEHICLE
59,BROOKLYN,Failure to Yield Right-of-Way,Unspecified,,2017-03-24,40.617523,-73.94221999999999,1,0,0,0,NEW YORK AVENUE,AVENUE N                        ,11.166666666666666,3640143,PASSENGER VEHICLE,BICYCLE
60,MANHATTAN,Driver Inattention/Distraction,Driver Inattention/Distraction,630       1 AVENUE                      ,2017-03-22,40.74521,-73.972466,1,0,0,0,,,13.25,3640348,SPORT UTILITY / STATION WAGON,BICYCLE
61,,Unspecified,Unspecified,,2017-03-26,40.743774,-73.886215,1,0,0,0,79 STREET,WOODSIDE AVENUE                 ,18.5,3639368,PASSENGER VEHICLE,BICYCLE
62,QUEENS,Pavement Defective,,,2017-03-26,40.753284,-73.90691,1,0,0,0,BROADWAY,NORTHERN BOULEVARD              ,15.75,3639613,BICYCLE,
63,,Driver Inattention/Distraction,Driver Inattention/Distraction,,2017-03-26,40.76023,-73.961525,1,0,0,0,,EAST 60 STREET                  ,20.333333333333332,3639759,BICYCLE,SPORT UTILITY / STATION WAGON
64,,Unspecified,Unspecified,,2017-03-26,,,1,0,0,0,,EAST DRIVE                      ,14.65,3639822,PASSENGER VEHICLE,BICYCLE
65,,Traffic Control Disregarded,Traffic Control Disregarded,,2017-03-22,40.825294,-73.95373000000001,1,0,0,0,RIVERSIDE DRIVE,WEST 142 STREET                 ,9.166666666666666,3640470,BICYCLE,PASSENGER VEHICLE
66,BRONX,Driver Inattention/Distraction,,,2017-03-25,40.84708,-73.8867,1,0,0,0,EAST 180 STREET,PROSPECT AVENUE                 ,14.833333333333334,3641027,BICYCLE,
67,BROOKLYN,Traffic Control Disregarded,Unspecified,,2017-03-23,40.672638,-73.97076,1,0,0,0,PLAZA STREET WEST,UNION STREET                    ,20.333333333333332,3637915,PASSENGER VEHICLE,BICYCLE
68,BROOKLYN,Driver Inattention/Distraction,Unspecified,,2017-03-27,40.63865,-73.95685,1,0,0,0,EAST 22 STREET,NEWKIRK AVENUE                  ,9.0,3640044,PICK-UP TRUCK,BICYCLE
69,,Driver Inattention/Distraction,Unsafe Speed,,2017-03-27,40.763546000000005,-73.96934499999999,1,0,0,0,,PARK AVENUE                     ,11.583333333333334,3640173,BICYCLE,SPORT UTILITY / STATION WAGON
70,,Passing or Lane Usage Improper,Driver Inattention/Distraction,2 AVENUE                                ,2017-03-27,40.751746999999995,-73.97081,1,0,0,0,,,0.0,3640214,BICYCLE,PASSENGER VEHICLE
71,QUEENS,Failure to Yield Right-of-Way,Unspecified,41-96     FORLEY STREET                 ,2017-03-27,40.745567,-73.8761,1,0,0,0,,,9.166666666666666,3640275,BICYCLE,PASSENGER VEHICLE
72,,Turning Improperly,Driver Inattention/Distraction,,2017-03-27,40.63758,-74.14701,1,0,0,0,GRANITE AVENUE,RICHMOND TERRACE                ,7.083333333333333,3640743,BICYCLE,PICK-UP TRUCK
73,BROOKLYN,Unspecified,Unspecified,,2017-03-27,40.62334,-73.95595,1,0,0,0,AVENUE K,OCEAN AVENUE                    ,13.25,3641181,PASSENGER VEHICLE,BICYCLE
74,BROOKLYN,Failure to Yield Right-of-Way,Unspecified,,2017-03-27,40.70665,-73.95042,1,0,0,0,MONTROSE AVENUE,UNION AVENUE                    ,20.916666666666668,3641674,PASSENGER VEHICLE,BICYCLE
75,MANHATTAN,Failure to Yield Right-of-Way,Passing or Lane Usage Improper,,2017-03-28,,,1,0,0,0,WEST 81 STREET,CENTRAL PARK WEST               ,11.416666666666666,3640613,TAXI,BICYCLE
76,BRONX,Driver Inattention/Distraction,Unspecified,,2017-03-28,40.857418,-73.899956,2,0,0,0,EAST 183 STREET,GRAND CONCOURSE                 ,12.333333333333334,3640623,BICYCLE,SPORT UTILITY / STATION WAGON
77,BROOKLYN,Driver Inattention/Distraction,Unspecified,,2017-03-28,40.58667,-73.96615600000001,1,0,0,0,AVENUE Z,OCEAN PARKWAY                   ,20.583333333333332,3641022,BICYCLE,SPORT UTILITY / STATION WAGON
78,,Passing or Lane Usage Improper,Unspecified,,2017-03-28,40.829597,-73.94814000000001,1,0,0,0,,BROADWAY                        ,14.083333333333334,3641211,BICYCLE,SPORT UTILITY / STATION WAGON
79,,Pedestrian/Bicyclist/Other Pedestrian Error/Confusion,Unspecified,,2017-03-28,40.616043,-73.94484,1,0,0,0,,KINGS HIGHWAY                   ,19.916666666666668,3641545,BICYCLE,PASSENGER VEHICLE
80,,Following Too Closely,Unspecified,,2016-10-13,40.817820000000005,-73.915276,2,0,0,0,3 AVENUE,EAST 152 STREET                 ,16.5,3541509,TAXI,BICYCLE
81,BROOKLYN,Pedestrian/Bicyclist/Other Pedestrian Error/Confusion,Unspecified,,2017-03-29,40.714455,-73.935295,1,0,0,0,METROPOLITAN AVENUE,MORGAN AVENUE                   ,18.416666666666668,3641379,BICYCLE,
82,BROOKLYN,Passing or Lane Usage Improper,Unspecified,,2017-03-29,40.62392,-73.9216,1,0,0,0,EAST 56 STREET,AVENUE L                        ,12.75,3641641,SPORT UTILITY / STATION WAGON,BICYCLE
83,,Driver Inattention/Distraction,Unspecified,,2017-03-29,40.767803,-73.95600999999999,1,0,0,0,,EAST 72 STREET                  ,20.333333333333332,3641709,TAXI,BICYCLE
84,,Passenger Distraction,Unspecified,,2017-03-29,40.72507,-73.98122,1,0,0,0,,AVENUE B                        ,22.5,3641729,BICYCLE,TAXI
85,MANHATTAN,Driver Inattention/Distraction,Unspecified,,2017-03-29,40.725876,-73.97754,1,0,0,0,AVENUE C,EAST 10 STREET                  ,18.0,3641733,SPORT UTILITY / STATION WAGON,BICYCLE
86,,Driver Inattention/Distraction,Unspecified,,2017-03-30,40.69603,-73.943535,1,0,0,0,,MYRTLE AVENUE                   ,8.166666666666666,3641788,PASSENGER VEHICLE,BICYCLE
87,MANHATTAN,Pedestrian/Bicyclist/Other Pedestrian Error/Confusion,Unspecified,,2017-03-29,40.71843,-74.000534,1,0,0,0,LAFAYETTE STREET,CANAL STREET                    ,19.9,3641860,BICYCLE,PASSENGER VEHICLE
88,MANHATTAN,Driver Inattention/Distraction,Unspecified,723       7 AVENUE                      ,2017-03-30,40.75997,-73.98408,1,0,0,0,,,16.116666666666667,3642254,BICYCLE,PASSENGER VEHICLE
89,MANHATTAN,Pedestrian/Bicyclist/Other Pedestrian Error/Confusion,Unspecified,,2017-03-30,40.766715999999995,-73.96914,1,0,0,0,EAST 64 STREET,MADISON AVENUE                  ,19.5,3642265,BICYCLE,SPORT UTILITY / STATION WAGON
90,,Driver Inattention/Distraction,Unspecified,,2017-03-30,40.599255,-73.9894,1,0,0,0,,86 STREET                       ,15.9,3642538,BICYCLE,PASSENGER VEHICLE
91,BROOKLYN,Unspecified,Unspecified,,2017-03-23,40.643303,-73.9478,1,0,0,0,EAST 31 STREET,CLARENDON ROAD                  ,19.466666666666665,3642586,SPORT UTILITY / STATION WAGON,BICYCLE
92,BROOKLYN,View Obstructed/Limited,View Obstructed/Limited,,2017-03-28,40.650517,-73.92359,1,0,0,0,SNYDER AVENUE,KINGS HIGHWAY                   ,19.183333333333334,3642608,BICYCLE,PASSENGER VEHICLE
93,MANHATTAN,Passing or Lane Usage Improper,Unspecified,227       AVENUE OF THE AMERICAS        ,2017-03-30,40.727913,-74.00315,1,0,0,0,,,16.866666666666667,3642627,BICYCLE,SPORT UTILITY / STATION WAGON
94,,Pedestrian/Bicyclist/Other Pedestrian Error/Confusion,Unspecified,,2017-03-31,40.70983,-74.01468,1,0,0,0,,ALBANY STREET                   ,6.0,3642642,SPORT UTILITY / STATION WAGON,BICYCLE
95,,Unspecified,Unspecified,,2017-03-31,40.686756,-73.9938,1,0,0,0,WARREN STREET,COURT STREET                    ,21.166666666666668,3642913,BICYCLE,SPORT UTILITY / STATION WAGON
96,MANHATTAN,Pavement Slippery,Pavement Slippery,,2017-03-31,40.726463,-73.9771,1,0,0,0,EAST 11 STREET,AVENUE C                        ,0.9666666666666667,3643127,PASSENGER VEHICLE,BICYCLE
97,MANHATTAN,Driver Inattention/Distraction,Unspecified,550       7 AVENUE                      ,2017-03-29,40.754467,-73.98810999999999,1,0,0,0,,,22.433333333333334,3643504,SPORT UTILITY / STATION WAGON,BICYCLE
98,MANHATTAN,Illness,Unspecified,,2017-03-28,,,1,0,0,0,12 AVENUE,WEST 41 STREET                  ,14.75,3644048,PASSENGER VEHICLE,BICYCLE
99,,Unspecified,Unspecified,,2017-04-01,40.645664000000004,-74.00974000000001,1,0,0,0,,5 AVENUE                        ,2.05,3643007,BICYCLE,PASSENGER VEHICLE
100,MANHATTAN,Driver Inattention/Distraction,Passing or Lane Usage Improper,,2017-04-01,40.80417,-73.966705,1,0,0,0,BROADWAY,WEST 110 STREET                 ,13.75,3643230,PASSENGER VEHICLE,BICYCLE
101,MANHATTAN,Reaction to Other Uninvolved Vehicle,Unspecified,383       3 AVENUE                      ,2017-04-01,40.74163,-73.9811,1,0,0,0,,,22.166666666666668,3643578,BICYCLE,PASSENGER VEHICLE
102,,Driver Inattention/Distraction,Unspecified,,2017-04-01,40.770073,-73.95141,1,0,0,0,,YORK AVENUE                     ,22.916666666666668,3643938,BICYCLE,PASSENGER VEHICLE
103,BROOKLYN,Unspecified,Unspecified,,2017-03-30,40.611702,-73.97046,1,0,0,0,AVENUE O,EAST 4 STREET                   ,16.5,3644170,BICYCLE,PASSENGER VEHICLE
104,,Driver Inattention/Distraction,Unspecified,,2017-03-30,40.789635,-73.94609,1,0,0,0,,3 AVENUE                        ,20.0,3644171,BICYCLE,SPORT UTILITY / STATION WAGON
105,,Traffic Control Disregarded,Pavement Slippery,,2017-03-31,40.784237,-73.947075,1,0,0,0,,EAST 96 STREET                  ,4.833333333333333,3644175,BICYCLE,SPORT UTILITY / STATION WAGON
106,,Driver Inattention/Distraction,Unspecified,,2017-03-25,40.767864,-73.73818,1,0,0,0,,249 STREET                      ,11.85,3644434,SPORT UTILITY / STATION WAGON,BICYCLE
107,MANHATTAN,Passing or Lane Usage Improper,Passing or Lane Usage Improper,120       EAST 119 STREET               ,2017-04-02,40.800922,-73.9411,1,0,0,0,,,14.916666666666666,3643423,BICYCLE,MOTORCYCLE
108,BROOKLYN,Failure to Yield Right-of-Way,Unspecified,,2017-04-02,40.718666,-73.9635,1,0,0,0,NORTH 4 STREET,KENT AVENUE                     ,15.75,3643642,BICYCLE,PASSENGER VEHICLE
109,BROOKLYN,Driver Inattention/Distraction,Unsafe Speed,205       GREENPOINT AVENUE             ,2017-04-02,40.730503000000006,-73.95111,1,0,0,0,,,18.0,3643647,SPORT UTILITY / STATION WAGON,BICYCLE
110,MANHATTAN,Passenger Distraction,Driver Inattention/Distraction,27        Union Sq W                    ,2017-04-02,,,1,0,0,0,,,1.4166666666666667,3643682,TAXI,BICYCLE
111,BRONX,Unspecified,Unspecified,3890      SEDGWICK AVENUE               ,2017-04-02,40.88301,-73.89413499999999,1,0,0,0,,,18.166666666666668,3643689,BICYCLE,
112,,Driver Inattention/Distraction,Driver Inattention/Distraction,,2017-04-02,40.662533,-73.94792,1,0,0,0,,LEFFERTS AVENUE                 ,13.666666666666666,3643809,PASSENGER VEHICLE,BICYCLE
113,,Unspecified,Unspecified,,2017-04-02,,,1,0,0,0,West 79 Street,Riverside Park                  ,12.6,3643925,BICYCLE,BICYCLE
114,QUEENS,Following Too Closely,Unspecified,,2017-04-02,40.743973,-73.8851,1,0,0,0,BAXTER AVENUE,BROADWAY                        ,15.75,3644018,SPORT UTILITY / STATION WAGON,BICYCLE
115,BRONX,Driver Inattention/Distraction,Unspecified,1284      UNION AVENUE                  ,2017-04-02,40.83077,-73.898674,1,0,0,0,,,17.666666666666668,3644067,BICYCLE,SPORT UTILITY / STATION WAGON
116,BROOKLYN,Driver Inattention/Distraction,Unspecified,,2017-04-02,40.731297,-73.95783,1,0,0,0,JAVA STREET,FRANKLIN STREET                 ,23.666666666666668,3644073,SPORT UTILITY / STATION WAGON,BICYCLE
117,BROOKLYN,Driver Inattention/Distraction,Unspecified,,2017-04-02,40.643456,-73.972725,1,0,0,0,BEVERLEY ROAD,EAST 7 STREET                   ,21.633333333333333,3644748,BICYCLE,
118,BRONX,Driver Inattention/Distraction,Driver Inattention/Distraction,,2017-04-02,40.833915999999995,-73.92702,1,0,0,0,WOODYCREST AVENUE,WEST 165 STREET                 ,13.666666666666666,3645031,BICYCLE,PASSENGER VEHICLE
119,QUEENS,Driver Inattention/Distraction,Pedestrian/Bicyclist/Other Pedestrian Error/Confusion,75-03     101 AVENUE                    ,2017-04-01,40.67967,-73.8622,1,0,0,0,,,12.05,3645075,SPORT UTILITY / STATION WAGON,BICYCLE
120,,Driver Inattention/Distraction,Unspecified,,2017-04-03,,,1,0,0,0,HORACE HARDING EXPRESSWAY,JUNCTION BOULEVARD              ,20.25,3644490,SPORT UTILITY / STATION WAGON,BICYCLE
121,,Pedestrian/Bicyclist/Other Pedestrian Error/Confusion,Pedestrian/Bicyclist/Other Pedestrian Error/Confusion,,2017-04-03,40.79931,-73.94324499999999,1,0,0,0,,PARK AVENUE                     ,20.25,3644511,BICYCLE,PASSENGER VEHICLE
122,,Driver Inexperience,Unspecified,,2017-04-03,40.70136,-73.98286,1,0,0,0,,YORK STREET                     ,14.5,3644544,PICK-UP TRUCK,BICYCLE
123,MANHATTAN,Unspecified,Unspecified,,2017-04-03,40.773334999999996,-73.95506,1,0,0,0,2 AVENUE,EAST 79 STREET                  ,7.833333333333333,3644565,BICYCLE,PICK-UP TRUCK
124,,Failure to Yield Right-of-Way,Unspecified,,2017-04-03,40.74864,-73.868095,1,0,0,0,,97 STREET                       ,20.583333333333332,3644793,SPORT UTILITY / STATION WAGON,BICYCLE
125,,Driver Inattention/Distraction,Unspecified,,2017-04-03,40.743332,-73.85495999999999,1,0,0,0,,108 STREET                      ,20.0,3644794,BICYCLE,SPORT UTILITY / STATION WAGON
126,BRONX,Other Vehicular,Unspecified,,2017-04-03,,,1,0,0,0,EAST 138 STREET,EXTERIOR STREET                 ,5.833333333333333,3644863,BICYCLE,PASSENGER VEHICLE
127,MANHATTAN,Failure to Yield Right-of-Way,Failure to Yield Right-of-Way,89        EAST 42 STREET                ,2017-04-03,40.75217,-73.97778000000001,1,0,0,0,,,18.416666666666668,3644954,BICYCLE,SPORT UTILITY / STATION WAGON
128,MANHATTAN,Pedestrian/Bicyclist/Other Pedestrian Error/Confusion,Unspecified,125       WEST 31 STREET                ,2017-04-03,40.748287,-73.99008,1,0,0,0,,,18.016666666666666,3644956,BICYCLE,PASSENGER VEHICLE
129,MANHATTAN,Pedestrian/Bicyclist/Other Pedestrian Error/Confusion,Driver Inattention/Distraction,136       WEST 42 STREET                ,2017-04-03,40.755333,-73.98531,1,0,0,0,,,6.75,3644959,BICYCLE,TAXI
130,BROOKLYN,Failure to Yield Right-of-Way,Unspecified,,2017-03-28,40.650703,-74.00449,1,0,0,0,5 AVENUE,40 STREET                       ,22.5,3645797,BICYCLE,PASSENGER VEHICLE
131,MANHATTAN,Unspecified,,,2017-04-03,40.717926,-73.98568,1,0,0,0,CLINTON STREET,DELANCEY STREET                 ,18.666666666666668,3645812,BICYCLE,
132,BROOKLYN,Unspecified,,,2017-04-02,,,1,0,0,0,president street,Washington avenue               ,15.166666666666666,3645842,BICYCLE,
133,BROOKLYN,Driver Inattention/Distraction,Unspecified,,2017-04-04,40.677162,-73.97245,1,0,0,0,CARLTON AVENUE,FLATBUSH AVENUE                 ,20.0,3645308,BICYCLE,TAXI
134,BROOKLYN,Driver Inattention/Distraction,,1065      BAY RIDGE PARKWAY             ,2017-04-04,40.623492999999996,-74.012695,1,0,0,0,,,19.833333333333332,3645311,PASSENGER VEHICLE,BICYCLE
135,QUEENS,Driver Inattention/Distraction,Unspecified,,2017-04-04,40.684258,-73.84604,1,0,0,0,WOODHAVEN BOULEVARD,101 AVENUE                      ,20.0,3645368,BICYCLE,
136,BROOKLYN,Other Vehicular,Pedestrian/Bicyclist/Other Pedestrian Error/Confusion,1055      MYRTLE AVENUE                 ,2017-04-04,40.696529999999996,-73.939255,1,0,0,0,,,15.5,3646004,PASSENGER VEHICLE,BICYCLE
137,BROOKLYN,Passing or Lane Usage Improper,Pedestrian/Bicyclist/Other Pedestrian Error/Confusion,,2017-04-01,40.64477,-73.954735,1,0,0,0,BEVERLEY ROAD,BEDFORD AVENUE                  ,12.0,3646034,SPORT UTILITY / STATION WAGON,BICYCLE
138,BROOKLYN,Driver Inattention/Distraction,Pedestrian/Bicyclist/Other Pedestrian Error/Confusion,,2017-04-02,40.640823,-73.96531,1,0,0,0,RUGBY ROAD,CORTELYOU ROAD                  ,15.333333333333334,3646113,PASSENGER VEHICLE,BICYCLE
139,MANHATTAN,Pedestrian/Bicyclist/Other Pedestrian Error/Confusion,Unspecified,,2017-04-03,40.741642,-74.00487,1,0,0,0,9 AVENUE,WEST 15 STREET                  ,15.5,3646143,TAXI,BICYCLE
140,BROOKLYN,Failure to Yield Right-of-Way,Unspecified,,2017-03-25,40.685990000000004,-73.90794,1,0,0,0,MOFFAT STREET,EVERGREEN AVENUE                ,17.0,3646636,SPORT UTILITY / STATION WAGON,BICYCLE
141,,Driver Inattention/Distraction,Unspecified,65        WEST DRIVE                    ,2017-04-05,,,1,0,0,0,,,8.25,3645617,PASSENGER VEHICLE,BICYCLE
142,,Driver Inattention/Distraction,Unspecified,,2017-04-05,40.664097,-73.90932,1,0,0,0,,ROCKAWAY AVENUE                 ,18.666666666666668,3645792,BICYCLE,BICYCLE
143,BRONX,Traffic Control Disregarded,Unspecified,,2017-04-05,40.85487,-73.88619,1,0,0,0,BELMONT AVENUE,EAST 187 STREET                 ,20.0,3645793,BICYCLE,PASSENGER VEHICLE
144,,Following Too Closely,Following Too Closely,,2017-04-05,40.668976,-73.90668000000001,1,0,0,0,,BELMONT AVENUE                  ,18.8,3645830,BICYCLE,PASSENGER VEHICLE
145,,Passing or Lane Usage Improper,Unspecified,,2017-04-05,40.759983,-73.96480600000001,1,0,0,0,,2 AVENUE                        ,18.5,3645847,PASSENGER VEHICLE,BICYCLE
146,STATEN ISLAND,Failure to Yield Right-of-Way,Unspecified,,2017-04-05,40.633858000000004,-74.12595999999999,1,0,0,0,CLOVE ROAD,CASTLETON AVENUE                ,20.333333333333332,3645914,PASSENGER VEHICLE,BICYCLE
147,MANHATTAN,Unspecified,Unspecified,711       WEST SIDE HIGHWAY             ,2017-04-05,,,1,0,0,0,,,18.333333333333332,3645978,BICYCLE,PASSENGER VEHICLE
148,QUEENS,Unspecified,Unspecified,84-01     ROOSEVELT AVENUE              ,2017-04-05,40.74785,-73.88194,1,0,0,0,,,0.0,3646087,BICYCLE,PASSENGER VEHICLE
149,QUEENS,Traffic Control Disregarded,Unspecified,,2017-04-05,40.749866,-73.86273,1,0,0,0,103 STREET,ROOSEVELT AVENUE                ,13.5,3646380,PASSENGER VEHICLE,BICYCLE
150,MANHATTAN,Pedestrian/Bicyclist/Other Pedestrian Error/Confusion,Unspecified,,2017-04-06,40.750492,-73.97171999999999,1,0,0,0,EAST 43 STREET,2 AVENUE                        ,15.816666666666666,3646448,TAXI,BICYCLE
151,MANHATTAN,Pedestrian/Bicyclist/Other Pedestrian Error/Confusion,Unspecified,,2017-04-06,40.76359,-73.98144,1,0,0,0,WEST 54 STREET,7 AVENUE                        ,0.0,3646759,BICYCLE,PASSENGER VEHICLE
152,,Driver Inattention/Distraction,Unspecified,,2017-04-07,40.74662,-73.89359,1,0,0,0,,ROOSEVELT AVENUE                ,6.5,3646769,PASSENGER VEHICLE,BICYCLE
153,MANHATTAN,Driver Inattention/Distraction,Unspecified,50        WEST 50 STREET                ,2017-04-07,40.759342,-73.97913,1,0,0,0,,,5.383333333333334,3646784,SPORT UTILITY / STATION WAGON,BICYCLE
154,BROOKLYN,Traffic Control Disregarded,Unspecified,,2017-04-06,40.69024,-73.9482,1,0,0,0,LAFAYETTE AVENUE,MARCY AVENUE                    ,20.833333333333332,3646845,BICYCLE,SPORT UTILITY / STATION WAGON
155,MANHATTAN,Unspecified,Unspecified,118       EAST 28 STREET                ,2017-04-07,40.74293,-73.98317,1,0,0,0,,,22.5,3646991,TAXI,BICYCLE
156,BROOKLYN,Driver Inattention/Distraction,Driver Inattention/Distraction,,2017-04-04,40.65217,-73.96141,1,0,0,0,OCEAN AVENUE,CATON AVENUE                    ,16.75,3647073,BICYCLE,SPORT UTILITY / STATION WAGON
157,BROOKLYN,Turning Improperly,Unspecified,,2017-04-07,40.711323,-73.94725,1,0,0,0,LEONARD STREET,GRAND STREET                    ,17.333333333333332,3647083,BICYCLE,
158,BROOKLYN,Unspecified,Unspecified,337       AVENUE U                      ,2017-04-07,40.59713,-73.97192,1,0,0,0,,,13.866666666666667,3647240,BICYCLE,PASSENGER VEHICLE
159,,Unspecified,,71        EAST DRIVE                    ,2017-04-07,,,1,0,0,0,,,13.916666666666666,3647596,BICYCLE,
160,BROOKLYN,Unspecified,Unspecified,1475      47 STREET                     ,2017-04-07,40.63392,-73.98725999999999,1,0,0,0,,,12.5,3647641,SPORT UTILITY / STATION WAGON,BICYCLE
161,,Pedestrian/Bicyclist/Other Pedestrian Error/Confusion,Unspecified,,2017-04-07,,,1,0,0,0,DYER AVENUE,WEST 31 STREET                  ,12.666666666666666,3647696,PASSENGER VEHICLE,BICYCLE
162,,Driver Inattention/Distraction,Unspecified,,2017-04-03,40.681446,-73.94644,1,0,0,0,,MARCY AVENUE                    ,16.666666666666668,3648014,BICYCLE,PASSENGER VEHICLE
163,QUEENS,Driver Inattention/Distraction,Unspecified,,2017-04-02,40.73599,-73.86551,1,0,0,0,JUNCTION BOULEVARD,58 AVENUE                       ,0.0,3648237,BICYCLE,
164,MANHATTAN,Pedestrian/Bicyclist/Other Pedestrian Error/Confusion,Pedestrian/Bicyclist/Other Pedestrian Error/Confusion,269       WEST 39 STREET                ,2017-04-07,40.754898,-73.99014,1,0,0,0,,,15.25,3648255,BICYCLE,
165,BROOKLYN,Driver Inattention/Distraction,Unspecified,1903      FULTON STREET                 ,2017-04-02,40.678806,-73.92036,1,0,0,0,,,16.0,3648349,PASSENGER VEHICLE,BICYCLE
166,BROOKLYN,Driver Inattention/Distraction,Driver Inattention/Distraction,,2017-04-08,40.661964000000005,-73.95705,1,0,0,0,LEFFERTS AVENUE,BEDFORD AVENUE                  ,0.26666666666666666,3646986,TAXI,BICYCLE
167,BRONX,Pedestrian/Bicyclist/Other Pedestrian Error/Confusion,Unspecified,,2017-04-08,,,1,0,0,0,COMMERCE AVENUE,WESTCHESTER AVENUE              ,15.833333333333334,3647210,PASSENGER VEHICLE,BICYCLE
168,,Pedestrian/Bicyclist/Other Pedestrian Error/Confusion,Unspecified,,2017-04-08,40.762066,-73.80753,1,0,0,0,,158 STREET                      ,11.0,3647558,BICYCLE,SPORT UTILITY / STATION WAGON
169,MANHATTAN,Failure to Yield Right-of-Way,Pedestrian/Bicyclist/Other Pedestrian Error/Confusion,,2017-04-08,40.731003,-74.00463,1,0,0,0,MORTON STREET,BEDFORD STREET                  ,1.75,3647578,PASSENGER VEHICLE,BICYCLE
170,,Driver Inattention/Distraction,Unspecified,,2017-04-08,40.72129,-73.94888,1,0,0,0,,MANHATTAN AVENUE                ,21.083333333333332,3647800,SPORT UTILITY / STATION WAGON,BICYCLE
171,,Driver Inattention/Distraction,Unspecified,205       5 AVENUE                      ,2017-04-08,40.7464,-73.98628000000001,1,0,0,0,,,10.25,3648058,TAXI,BICYCLE
172,BROOKLYN,Pedestrian/Bicyclist/Other Pedestrian Error/Confusion,Unspecified,,2017-04-08,40.604766999999995,-73.99088,1,0,0,0,81 STREET,BAY PARKWAY                     ,14.0,3648125,PASSENGER VEHICLE,BICYCLE
173,QUEENS,Traffic Control Disregarded,Unspecified,,2017-04-08,40.739426,-73.88079,1,0,0,0,POYER STREET,DONGAN AVENUE                   ,16.25,3648228,BICYCLE,PASSENGER VEHICLE
174,,Passenger Distraction,Unspecified,,2017-04-07,40.763546000000005,-73.96934499999999,1,0,0,0,,PARK AVENUE                     ,19.0,3648593,TAXI,BICYCLE
175,,Driver Inattention/Distraction,Unspecified,,2017-04-08,40.77039,-73.954124,1,0,0,0,,1 AVENUE                        ,13.216666666666667,3648630,BICYCLE,PASSENGER VEHICLE
176,,Traffic Control Disregarded,Unspecified,,2017-04-08,40.71059,-73.95474,1,0,0,0,,BORINQUEN PLACE                 ,18.666666666666668,3648952,BICYCLE,PASSENGER VEHICLE
177,MANHATTAN,Driver Inattention/Distraction,Traffic Control Disregarded,,2017-04-09,40.737359999999995,-73.99685,1,0,0,0,AVENUE OF THE AMERICAS,WEST 14 STREET                  ,3.5,3647599,BICYCLE,PASSENGER VEHICLE
178,,Turning Improperly,Unspecified,,2017-04-09,40.733290000000004,-73.98719,1,0,0,0,,EAST 14 STREET                  ,14.966666666666667,3647784,PASSENGER VEHICLE,BICYCLE
179,BROOKLYN,Failure to Yield Right-of-Way,Unspecified,,2017-04-09,40.594364,-73.9609,1,0,0,0,GRAVESEND NECK ROAD,CONEY ISLAND AVENUE             ,18.0,3647886,BICYCLE,SPORT UTILITY / STATION WAGON
180,MANHATTAN,Driver Inattention/Distraction,Driver Inattention/Distraction,150       EAST 4 STREET                 ,2017-04-09,40.7249,-73.98635999999999,1,0,0,0,,,20.466666666666665,3647910,PASSENGER VEHICLE,BICYCLE
181,BROOKLYN,Failure to Yield Right-of-Way,Unspecified,681       ALBANY AVENUE                 ,2017-04-09,40.65736,-73.939644,1,0,0,0,,,12.0,3647963,BICYCLE,TAXI
182,QUEENS,Driver Inattention/Distraction,,,2017-04-09,40.753284,-73.90691,1,0,0,0,BROADWAY,NORTHERN BOULEVARD              ,2.0833333333333335,3647992,BICYCLE,
183,,Failure to Yield Right-of-Way,Unspecified,,2017-04-09,40.76736,-73.9371,1,0,0,0,10 STREET,VERNON BOULEVARD                ,13.5,3647997,BICYCLE,SPORT UTILITY / STATION WAGON
184,,Driver Inattention/Distraction,Unspecified,,2017-04-09,40.680187,-73.755486,1,0,0,0,,MERRICK BOULEVARD               ,14.883333333333333,3648157,PASSENGER VEHICLE,BICYCLE
185,BROOKLYN,Driver Inattention/Distraction,Unspecified,,2017-04-09,40.650642,-73.96526999999999,1,0,0,0,EAST 16 STREET,CATON AVENUE                    ,18.416666666666668,3649341,SPORT UTILITY / STATION WAGON,BICYCLE
186,,Failure to Yield Right-of-Way,Unspecified,,2017-03-12,40.714226000000004,-73.90299,1,0,0,0,60 LANE,ELIOT AVENUE                    ,21.0,3649437,PASSENGER VEHICLE,BICYCLE
187,BRONX,Failure to Yield Right-of-Way,Unspecified,695       EAST 182 STREET               ,2017-04-10,40.850590000000004,-73.8869,1,0,0,0,,,8.0,3648558,BICYCLE,SPORT UTILITY / STATION WAGON
188,,Unsafe Speed,Unspecified,,2017-04-10,40.76038,-73.75801,1,0,0,0,,CLOVERDALE BOULEVARD            ,16.0,3648802,SPORT UTILITY / STATION WAGON,BICYCLE
189,STATEN ISLAND,Driver Inattention/Distraction,Driver Inattention/Distraction,,2017-04-10,40.645472999999996,-74.09286999999999,1,0,0,0,FRANKLIN AVENUE,RICHMOND TERRACE                ,14.916666666666666,3648972,PICK-UP TRUCK,BICYCLE
190,MANHATTAN,Failure to Yield Right-of-Way,Unspecified,,2017-04-10,40.798252000000005,-73.95249,1,0,0,0,WEST 110 STREET,LENOX AVENUE                    ,15.283333333333333,3649053,PASSENGER VEHICLE,BICYCLE
191,BROOKLYN,Unspecified,Unspecified,,2017-04-10,40.63693,-73.91109,1,0,0,0,EAST 83 STREET,FLATLANDS AVENUE                ,11.916666666666666,3649055,SPORT UTILITY / STATION WAGON,BICYCLE
192,MANHATTAN,Passing or Lane Usage Improper,,366       5 AVENUE                      ,2017-04-10,40.7489,-73.984245,1,0,0,0,,,14.0,3649094,TAXI,BICYCLE
193,MANHATTAN,Driver Inattention/Distraction,Driver Inattention/Distraction,,2017-04-10,40.821117,-73.957466,1,0,0,0,12 AVENUE,WEST 135 STREET                 ,13.333333333333334,3649107,PASSENGER VEHICLE,BICYCLE
194,BROOKLYN,Unspecified,Unspecified,1582      EAST 22 STREET                ,2017-04-10,40.61295,-73.951996,1,0,0,0,,,17.6,3649146,BICYCLE,PASSENGER VEHICLE
195,QUEENS,Pedestrian/Bicyclist/Other Pedestrian Error/Confusion,Unspecified,25-47     12 STREET                     ,2017-04-11,40.775375,-73.928925,1,0,0,0,,,10.5,3649147,BICYCLE,PASSENGER VEHICLE
196,QUEENS,Driver Inattention/Distraction,Unspecified,,2017-04-11,40.74576,-73.92581,1,0,0,0,43 AVENUE,39 STREET                       ,6.9,3649175,BICYCLE,
197,,Unspecified,,,2017-04-11,40.697247,-73.78965,1,0,0,0,,164 PLACE                       ,10.0,3649184,BICYCLE,SPORT UTILITY / STATION WAGON
198,,Pedestrian/Bicyclist/Other Pedestrian Error/Confusion,,,2017-04-11,,,1,0,0,0,,,19.25,3649498,BICYCLE,
199,BROOKLYN,Failure to Yield Right-of-Way,Unspecified,,2017-04-10,40.62189,-73.918526,1,0,0,0,EAST 59 STREET,AVENUE M                        ,21.0,3649552,BICYCLE,PASSENGER VEHICLE
200,BROOKLYN,Other Vehicular,Unspecified,,2017-04-10,40.670887,-73.93649,1,0,0,0,SAINT JOHNS PLACE,TROY AVENUE                     ,17.5,3649573,BICYCLE,
201,MANHATTAN,Driver Inattention/Distraction,,,2017-04-11,40.76359,-73.98144,1,0,0,0,WEST 54 STREET,7 AVENUE                        ,11.5,3649809,BICYCLE,
202,MANHATTAN,Passing or Lane Usage Improper,Unspecified,303       WEST 42 STREET                ,2017-04-11,40.757435,-73.99026500000001,1,0,0,0,,,19.583333333333332,3649813,PASSENGER VEHICLE,BICYCLE
203,,Other Vehicular,Passing or Lane Usage Improper,,2017-04-11,40.694313,-73.93052,1,0,0,0,,BROADWAY                        ,18.5,3649923,PASSENGER VEHICLE,BICYCLE
204,,Unspecified,,,2017-04-11,40.698048,-73.97579,1,0,0,0,,FLUSHING AVENUE                 ,11.5,3650071,BICYCLE,
205,MANHATTAN,Failure to Yield Right-of-Way,Unspecified,,2017-04-12,40.715621999999996,-73.994286,1,0,0,0,FORSYTH STREET,CANAL STREET                    ,6.916666666666667,3649743,PICK-UP TRUCK,BICYCLE
206,MANHATTAN,Driver Inattention/Distraction,Unspecified,130       BAXTER STREET                 ,2017-04-12,40.718258,-73.998886,1,0,0,0,,,12.666666666666666,3649754,PASSENGER VEHICLE,BICYCLE
207,QUEENS,Driver Inattention/Distraction,Unspecified,,2017-04-12,40.739063,-73.92616,1,0,0,0,39 PLACE,GREENPOINT AVENUE               ,17.25,3650078,BICYCLE,SPORT UTILITY / STATION WAGON
208,BROOKLYN,Driver Inattention/Distraction,Driver Inattention/Distraction,268       METROPOLITAN AVENUE           ,2017-04-12,40.71472,-73.95846,1,0,0,0,,,22.75,3650092,BICYCLE,PASSENGER VEHICLE
209,BROOKLYN,Pedestrian/Bicyclist/Other Pedestrian Error/Confusion,Pedestrian/Bicyclist/Other Pedestrian Error/Confusion,162       PROSPECT PARK WEST            ,2017-04-12,40.663315000000004,-73.977936,2,0,0,0,,,11.0,3650146,BICYCLE,BICYCLE
210,MANHATTAN,Driver Inattention/Distraction,Unspecified,270       WEST 43 STREET                ,2017-04-12,40.75748,-73.98832,1,0,0,0,,,14.833333333333334,3650227,TAXI,BICYCLE
211,BROOKLYN,Following Too Closely,Unspecified,,2017-04-13,40.687183000000005,-73.9766,1,0,0,0,FORT GREENE PLACE,FULTON STREET                   ,11.583333333333334,3650252,PASSENGER VEHICLE,BICYCLE
212,,Pedestrian/Bicyclist/Other Pedestrian Error/Confusion,Unspecified,,2017-04-12,40.590294,-73.952866,1,0,0,0,,EAST 17 STREET                  ,17.233333333333334,3650293,PASSENGER VEHICLE,BICYCLE
213,QUEENS,Driver Inattention/Distraction,Driver Inattention/Distraction,,2017-04-13,40.75428,-73.89751,1,0,0,0,69 STREET,NORTHERN BOULEVARD              ,16.5,3650362,SPORT UTILITY / STATION WAGON,BICYCLE
214,QUEENS,Failure to Yield Right-of-Way,Unspecified,,2017-04-12,40.756676,-73.920876,1,0,0,0,STEINWAY STREET,34 AVENUE                       ,22.25,3650416,BICYCLE,PASSENGER VEHICLE
215,BRONX,Unspecified,Unspecified,,2017-04-12,40.80826,-73.918816,1,0,0,0,EAST 139 STREET,BROOK AVENUE                    ,6.416666666666667,3650441,BICYCLE,SPORT UTILITY / STATION WAGON
216,,Oversized Vehicle,Passing or Lane Usage Improper,,2017-04-13,40.77613,-73.910706,1,0,0,0,,DITMARS BOULEVARD               ,23.0,3650706,BICYCLE,
217,,Pedestrian/Bicyclist/Other Pedestrian Error/Confusion,Unspecified,,2017-04-13,40.644863,-73.91113,1,0,0,0,,FOSTER AVENUE                   ,21.5,3650717,SPORT UTILITY / STATION WAGON,BICYCLE
218,,Passing or Lane Usage Improper,Unspecified,,2017-04-13,40.642821999999995,-73.96086,1,0,0,0,,CORTELYOU ROAD                  ,20.666666666666668,3650793,BICYCLE,PASSENGER VEHICLE
219,,Driver Inattention/Distraction,Unspecified,,2017-04-13,40.634506,-73.949455,1,0,0,0,GLENWOOD ROAD,FLATBUSH AVENUE                 ,20.7,3650805,BICYCLE,PASSENGER VEHICLE
220,,Pavement Defective,,,2017-04-13,40.711224,-73.92859,1,0,0,0,,VARICK AVENUE                   ,22.5,3650838,BICYCLE,
221,MANHATTAN,Failure to Yield Right-of-Way,Unspecified,,2017-04-10,40.7371,-73.990326,1,0,0,0,UNION SQUARE WEST,EAST 17 STREET                  ,14.0,3650862,TAXI,BICYCLE
222,,Unspecified,,,2017-04-13,40.73927,-73.99545,1,0,0,0,,WEST 17 STREET                  ,17.0,3650881,BICYCLE,
223,MANHATTAN,Failure to Yield Right-of-Way,Unspecified,,2017-04-13,40.851859999999995,-73.92815999999999,1,0,0,0,AMSTERDAM AVENUE,WEST 187 STREET                 ,19.7,3650920,PASSENGER VEHICLE,BICYCLE
224,MANHATTAN,Passenger Distraction,Unspecified,730       5 AVENUE                      ,2017-04-13,40.762634000000006,-73.97423,1,0,0,0,,,14.383333333333333,3650924,BICYCLE,PASSENGER VEHICLE
225,QUEENS,Unsafe Lane Changing,Unspecified,,2017-04-14,40.746876,-73.95272,1,0,0,0,46 AVENUE,VERNON BOULEVARD                ,10.5,3650993,BICYCLE,
226,QUEENS,Driver Inattention/Distraction,Unspecified,,2016-04-14,40.736340000000006,-73.93266,1,0,0,0,GALE AVENUE,GREENPOINT AVENUE               ,10.583333333333334,3650994,BICYCLE,SPORT UTILITY / STATION WAGON
227,MANHATTAN,Driver Inattention/Distraction,Unspecified,,2017-04-13,40.76099,-73.99077,1,0,0,0,9 AVENUE,WEST 46 STREET                  ,12.666666666666666,3651010,SPORT UTILITY / STATION WAGON,BICYCLE
228,BROOKLYN,Failure to Yield Right-of-Way,Failure to Yield Right-of-Way,,2017-04-14,40.71634,-73.96386,1,0,0,0,NORTH 1 STREET,WYTHE AVENUE                    ,16.0,3651047,BICYCLE,SPORT UTILITY / STATION WAGON
229,,Pedestrian/Bicyclist/Other Pedestrian Error/Confusion,Pedestrian/Bicyclist/Other Pedestrian Error/Confusion,,2017-04-14,40.75855,-73.82964,1,0,0,0,41 AVENUE,MAIN STREET                     ,15.5,3651054,BICYCLE,
230,,Pedestrian/Bicyclist/Other Pedestrian Error/Confusion,Unspecified,,2017-04-13,,,1,0,0,0,,,16.666666666666668,3651177,SPORT UTILITY / STATION WAGON,BICYCLE
231,,Unsafe Lane Changing,Driver Inattention/Distraction,,2017-04-11,40.732346,-73.98495,1,0,0,0,,EAST 14 STREET                  ,21.166666666666668,3651183,TAXI,BICYCLE
232,QUEENS,Driver Inattention/Distraction,Unspecified,,2017-04-13,40.678787,-73.84427,1,0,0,0,107 AVENUE,CROSS BAY BOULEVARD             ,19.5,3651211,SPORT UTILITY / STATION WAGON,BICYCLE
233,,Driver Inattention/Distraction,Unspecified,,2017-04-05,40.675284999999995,-73.81177,2,0,0,0,ROCKAWAY BOULEVARD,126 STREET                      ,18.5,3651217,BICYCLE,PASSENGER VEHICLE
234,BRONX,Turning Improperly,Unspecified,1941      SOUTHERN BOULEVARD            ,2017-04-12,40.842265999999995,-73.885765,1,0,0,0,,,13.683333333333334,3651467,SPORT UTILITY / STATION WAGON,BICYCLE
235,BROOKLYN,Pedestrian/Bicyclist/Other Pedestrian Error/Confusion,Unspecified,,2017-04-14,40.649440000000006,-73.96308,1,0,0,0,CHURCH AVENUE,EAST 18 STREET                  ,16.316666666666666,3651483,BICYCLE,SPORT UTILITY / STATION WAGON
236,BROOKLYN,Failure to Yield Right-of-Way,Unspecified,,2017-04-14,40.647242999999996,-73.96048,1,0,0,0,ALBEMARLE ROAD,OCEAN AVENUE                    ,16.916666666666668,3651484,BICYCLE,SPORT UTILITY / STATION WAGON
237,BROOKLYN,Pedestrian/Bicyclist/Other Pedestrian Error/Confusion,Unspecified,,2017-04-14,40.64059,-73.95429,1,0,0,0,BEDFORD AVENUE,AVENUE D                        ,18.05,3651485,SPORT UTILITY / STATION WAGON,BICYCLE
238,,Unspecified,,89        WEST DRIVE                    ,2017-04-13,40.678129999999996,-73.94906999999999,1,0,0,0,,,10.833333333333334,3651600,BICYCLE,
239,BROOKLYN,Pedestrian/Bicyclist/Other Pedestrian Error/Confusion,Unspecified,8733      19 AVENUE                     ,2017-04-14,40.603283000000005,-74.00321,1,0,0,0,,,17.333333333333332,3651640,SPORT UTILITY / STATION WAGON,BICYCLE
240,MANHATTAN,Driver Inattention/Distraction,Unspecified,,2017-04-14,40.73603,-73.99781,1,0,0,0,WEST 12 STREET,AVENUE OF THE AMERICAS          ,12.666666666666666,3651673,BICYCLE,TAXI
241,,Unspecified,,,2017-04-14,40.828976000000004,-73.9486,1,0,0,0,,WEST 149 STREET                 ,20.766666666666666,3651690,BICYCLE,
242,,Pedestrian/Bicyclist/Other Pedestrian Error/Confusion,Pedestrian/Bicyclist/Other Pedestrian Error/Confusion,,2017-04-13,40.827890000000004,-73.89820999999999,1,0,0,0,,PROSPECT AVENUE                 ,18.75,3651728,SPORT UTILITY / STATION WAGON,BICYCLE
243,BRONX,Traffic Control Disregarded,,,2017-04-04,40.817574,-73.90359000000001,1,0,0,0,EAST 156 STREET,UNION AVENUE                    ,15.25,3652076,PASSENGER VEHICLE,BICYCLE
244,BROOKLYN,Unspecified,,,2017-04-14,40.576392999999996,-73.9869,1,0,0,0,MERMAID AVENUE,WEST 20 STREET                  ,14.5,3652082,BICYCLE,
245,BROOKLYN,Driver Inattention/Distraction,Unspecified,,2017-04-12,40.626568,-73.970924,1,0,0,0,OCEAN PARKWAY,AVENUE I                        ,23.166666666666668,3652116,BICYCLE,PASSENGER VEHICLE
246,,Following Too Closely,,,2017-04-14,,,1,0,0,0,,WEST DRIVE                      ,13.916666666666666,3652162,BICYCLE,
247,STATEN ISLAND,Reaction to Other Uninvolved Vehicle,Driver Inattention/Distraction,,2017-04-14,40.62962,-74.07667,1,0,0,0,WAVE STREET,BAY STREET                      ,14.816666666666666,3652172,BICYCLE,PASSENGER VEHICLE
248,,Driver Inattention/Distraction,Unspecified,,2017-04-13,40.684258,-73.81515,1,0,0,0,127 STREET,109 AVENUE                      ,16.716666666666665,3652280,BICYCLE,PASSENGER VEHICLE
249,,Failure to Yield Right-of-Way,Unspecified,EAST 79 STREET                          ,2017-04-13,40.770393,-73.94808,1,0,0,0,,,18.5,3652302,SPORT UTILITY / STATION WAGON,BICYCLE
250,QUEENS,Failure to Yield Right-of-Way,Unspecified,56-17     COLLEGE POINT BOULEVARD       ,2017-04-15,40.74778,-73.8332,1,0,0,0,,,12.083333333333334,3651273,BICYCLE,SPORT UTILITY / STATION WAGON
251,MANHATTAN,Unsafe Lane Changing,Unspecified,,2017-04-15,40.754875,-73.96853,1,0,0,0,EAST 50 STREET,2 AVENUE                        ,21.416666666666668,3651381,PASSENGER VEHICLE,BICYCLE
252,,View Obstructed/Limited,,,2017-04-15,40.734314000000005,-73.93803,1,0,0,0,GREENPOINT AVENUE,REVIEW AVENUE                   ,21.083333333333332,3651394,SPORT UTILITY / STATION WAGON,BICYCLE
253,BRONX,Unspecified,,,2017-04-15,40.856106,-73.90646,1,0,0,0,DAVIDSON AVENUE,WEST 181 STREET                 ,17.833333333333332,3651419,BICYCLE,
254,MANHATTAN,Failure to Yield Right-of-Way,Unspecified,,2017-04-15,40.839565,-73.93989,1,0,0,0,SAINT NICHOLAS AVENUE,WEST 166 STREET                 ,13.183333333333334,3651581,BICYCLE,TAXI
255,MANHATTAN,Unspecified,,,2017-04-15,40.77994,-73.97103,1,0,0,0,WEST DRIVE,TRANSVERSE ROAD NUMBER TWO      ,17.75,3651601,BICYCLE,
256,BRONX,Following Too Closely,Unspecified,,2017-04-15,40.829229999999995,-73.87550999999999,1,0,0,0,STRATFORD AVENUE,WESTCHESTER AVENUE              ,20.116666666666667,3651859,BICYCLE,
257,QUEENS,Pedestrian/Bicyclist/Other Pedestrian Error/Confusion,Unspecified,,2017-04-14,40.70523,-73.80358000000001,1,0,0,0,89 AVENUE,153 STREET                      ,17.0,3652327,SPORT UTILITY / STATION WAGON,BICYCLE
258,MANHATTAN,Driver Inattention/Distraction,Unspecified,,2017-04-14,40.754677,-73.975815,1,0,0,0,PARK AVENUE,EAST 46 STREET                  ,20.5,3652358,SPORT UTILITY / STATION WAGON,BICYCLE
259,BROOKLYN,Driver Inattention/Distraction,Unspecified,,2017-04-15,40.708465999999994,-73.94676,1,0,0,0,LEONARD STREET,SCHOLES STREET                  ,0.5,3652834,BICYCLE,SPORT UTILITY / STATION WAGON
260,QUEENS,Driver Inattention/Distraction,Unspecified,,2017-04-04,40.695023,-73.84645,1,0,0,0,101 STREET,JAMAICA AVENUE                  ,20.75,3652852,BICYCLE,SPORT UTILITY / STATION WAGON
261,,Unspecified,,97        EAST DRIVE                    ,2017-04-16,,,1,0,0,0,,,13.916666666666666,3651755,BICYCLE,
262,QUEENS,Failure to Yield Right-of-Way,Unspecified,59-22     MYRTLE AVENUE                 ,2017-04-16,40.700503999999995,-73.89901,1,0,0,0,,,16.25,3652125,SPORT UTILITY / STATION WAGON,BICYCLE
263,BROOKLYN,Pedestrian/Bicyclist/Other Pedestrian Error/Confusion,Unspecified,,2017-04-16,40.652752,-73.88629,1,0,0,0,FLATLANDS AVENUE,PENNSYLVANIA AVENUE             ,15.0,3652335,SPORT UTILITY / STATION WAGON,BICYCLE
264,,Traffic Control Disregarded,Unspecified,,2017-04-16,40.748847999999995,-73.872375,2,0,0,0,ROOSEVELT AVENUE,94 STREET                       ,20.0,3652409,BICYCLE,PASSENGER VEHICLE
265,BROOKLYN,Failure to Yield Right-of-Way,,,2017-04-16,40.698345,-73.92158,1,0,1,0,HIMROD STREET,WILSON AVENUE                   ,0.0,3652873,BICYCLE,
266,BROOKLYN,Pedestrian/Bicyclist/Other Pedestrian Error/Confusion,Unspecified,,2017-04-14,40.674746999999996,-73.9417,1,0,0,0,SAINT MARKS AVENUE,KINGSTON AVENUE                 ,15.666666666666666,3652919,PASSENGER VEHICLE,BICYCLE
267,BROOKLYN,Passing or Lane Usage Improper,Unspecified,1138      BEDFORD AVENUE                ,2017-04-10,40.685520000000004,-73.95436,1,0,0,0,,,20.183333333333334,3652978,PASSENGER VEHICLE,BICYCLE
268,QUEENS,Pedestrian/Bicyclist/Other Pedestrian Error/Confusion,,,2017-04-16,40.685413,-73.86331,1,0,0,0,ROCKAWAY BOULEVARD,77 STREET                       ,15.25,3653156,BICYCLE,
269,BROOKLYN,Failure to Yield Right-of-Way,Unspecified,,2017-04-15,40.716778000000005,-73.93635,1,0,0,0,MASPETH AVENUE,MORGAN AVENUE                   ,12.416666666666666,3653178,SPORT UTILITY / STATION WAGON,BICYCLE
270,STATEN ISLAND,Pedestrian/Bicyclist/Other Pedestrian Error/Confusion,Unspecified,,2017-04-14,40.623585,-74.08278,1,0,0,0,GORDON STREET,BROAD STREET                    ,20.75,3653210,BICYCLE,PASSENGER VEHICLE
271,QUEENS,Driver Inattention/Distraction,Unspecified,,2017-04-17,40.749140000000004,-73.91561,1,0,0,0,39 AVENUE,48 STREET                       ,9.766666666666667,3652467,BICYCLE,TAXI
272,BROOKLYN,Failure to Yield Right-of-Way,Unspecified,,2017-04-17,40.69728,-73.987045,1,0,0,0,CHAPEL STREET,JAY STREET                      ,0.0,3652510,BICYCLE,SPORT UTILITY / STATION WAGON
273,MANHATTAN,Unspecified,Unspecified,140       WEST 13 STREET                ,2017-04-17,40.737183,-73.9986,1,0,0,0,,,0.13333333333333333,3652608,SPORT UTILITY / STATION WAGON,BICYCLE
274,,Unsafe Speed,Unspecified,,2017-04-17,40.663906,-73.95098,1,0,0,0,,EMPIRE BOULEVARD                ,16.25,3652644,BICYCLE,PASSENGER VEHICLE
275,MANHATTAN,Pedestrian/Bicyclist/Other Pedestrian Error/Confusion,Unspecified,351       EAST 13 STREET                ,2017-04-17,40.731159999999996,-73.984245,1,0,0,0,,,12.583333333333334,3652827,BICYCLE,PASSENGER VEHICLE
276,MANHATTAN,Failure to Yield Right-of-Way,Unspecified,,2017-04-17,40.720707,-73.981316,1,0,0,0,AVENUE C,EAST HOUSTON STREET             ,14.833333333333334,3652828,BICYCLE,SPORT UTILITY / STATION WAGON
277,BROOKLYN,Pedestrian/Bicyclist/Other Pedestrian Error/Confusion,Driver Inattention/Distraction,1215      MYRTLE AVENUE                 ,2017-04-17,40.69741,-73.93148000000001,1,0,0,0,,,22.583333333333332,3652892,BICYCLE,PASSENGER VEHICLE
278,,Traffic Control Disregarded,Unspecified,,2017-04-17,40.685028,-73.94135,1,0,0,0,,PUTNAM AVENUE                   ,22.083333333333332,3652900,BICYCLE,PASSENGER VEHICLE
279,MANHATTAN,Turning Improperly,Unspecified,130       WEST 42 STREET                ,2017-04-17,40.755272,-73.985176,1,0,0,0,,,14.5,3653124,SPORT UTILITY / STATION WAGON,BICYCLE
280,MANHATTAN,Passing or Lane Usage Improper,,52        CHAMBERS STREET               ,2017-04-17,40.713814,-74.00558000000001,1,0,0,0,,,18.4,3653315,BICYCLE,
281,BROOKLYN,Driver Inattention/Distraction,Unspecified,,2017-04-13,40.710533,-73.95514,1,0,0,0,RODNEY STREET,BORINQUEN PLACE                 ,7.0,3653415,PASSENGER VEHICLE,BICYCLE
282,BROOKLYN,Driver Inattention/Distraction,Unspecified,,2017-04-13,40.696659999999994,-73.93109,1,0,0,0,SUYDAM STREET,BUSHWICK AVENUE                 ,14.2,3653416,PASSENGER VEHICLE,BICYCLE
283,MANHATTAN,Aggressive Driving/Road Rage,Other Vehicular,120       WEST 22 STREET                ,2017-04-17,40.742573,-73.99413,1,0,0,0,,,18.5,3653479,BICYCLE,
284,BROOKLYN,Pedestrian/Bicyclist/Other Pedestrian Error/Confusion,,450       FLATBUSH AVENUE               ,2017-01-04,40.663483,-73.9627,1,0,0,0,,,21.916666666666668,3653920,BICYCLE,
285,BROOKLYN,View Obstructed/Limited,Unspecified,624       PARK AVENUE                   ,2017-04-18,40.697437,-73.95082,1,0,0,0,,,13.333333333333334,3652995,BICYCLE,TAXI
286,BRONX,Driver Inattention/Distraction,Unspecified,,2017-04-18,40.898663,-73.848724,1,0,0,0,NEREID AVENUE,ELY AVENUE                      ,9.416666666666666,3653057,BICYCLE,PASSENGER VEHICLE
287,BROOKLYN,Pedestrian/Bicyclist/Other Pedestrian Error/Confusion,Unspecified,129       5 AVENUE                      ,2017-04-18,40.6787,-73.97890500000001,1,0,0,0,,,16.083333333333332,3653218,PASSENGER VEHICLE,BICYCLE
288,MANHATTAN,Passing or Lane Usage Improper,Unspecified,200       WEST 54 STREET                ,2017-04-18,40.76365,-73.981606,1,0,0,0,,,18.916666666666668,3653286,PASSENGER VEHICLE,BICYCLE
289,,Driver Inexperience,Unspecified,2 AVENUE                                ,2017-04-18,40.780437,-73.94989,1,0,0,0,,,19.833333333333332,3653294,BICYCLE,PASSENGER VEHICLE
290,,Pedestrian/Bicyclist/Other Pedestrian Error/Confusion,Unspecified,,2017-04-18,40.668735999999996,-73.84228,1,0,0,0,SOUTHERN PARKWAY,CROSS BAY BOULEVARD             ,20.75,3653298,BICYCLE,SPORT UTILITY / STATION WAGON
291,,Driver Inattention/Distraction,Turning Improperly,,2017-04-18,40.831974,-73.9235,1,0,0,0,,RIVER AVENUE                    ,19.0,3653309,BICYCLE,SPORT UTILITY / STATION WAGON
292,,Failure to Yield Right-of-Way,Unspecified,,2017-04-18,40.652954,-74.00215,1,0,0,0,,5 AVENUE                        ,14.5,3653338,SPORT UTILITY / STATION WAGON,BICYCLE
293,QUEENS,Pedestrian/Bicyclist/Other Pedestrian Error/Confusion,Unspecified,,2017-04-18,,,1,0,0,0,QUEENS BOULEVARD,58 STREET                       ,18.166666666666668,3653388,BICYCLE,SPORT UTILITY / STATION WAGON
294,BROOKLYN,Turning Improperly,Unspecified,,2017-04-18,40.634192999999996,-73.96988,1,0,0,0,EAST 8 STREET,18 AVENUE                       ,17.25,3653432,PASSENGER VEHICLE,BICYCLE
295,,Driver Inattention/Distraction,,,2017-04-19,40.750626000000004,-73.87595,1,0,0,0,,37 AVENUE                       ,4.2,3653441,BICYCLE,
296,MANHATTAN,Driver Inattention/Distraction,Unspecified,,2017-04-18,40.799434999999995,-73.9553,1,0,0,0,7 AVENUE,WEST 110 STREET                 ,17.4,3653664,BICYCLE,PASSENGER VEHICLE
297,BRONX,Unspecified,Unspecified,,2017-04-18,40.81608,-73.917694,1,0,0,0,3 AVENUE,EAST 149 STREET                 ,6.916666666666667,3653691,BICYCLE,
298,QUEENS,Driver Inattention/Distraction,Unspecified,96-38     CORONA AVENUE                 ,2017-04-19,40.742367,-73.866936,1,0,0,0,,,22.75,3653713,BICYCLE,
299,BROOKLYN,Alcohol Involvement,Unspecified,,2017-04-19,40.637794,-74.0251,1,0,0,0,67 STREET,3 AVENUE                        ,20.25,3653783,BICYCLE,PASSENGER VEHICLE
300,BROOKLYN,Traffic Control Disregarded,Unspecified,,2017-04-20,40.706047,-73.94129000000001,1,0,0,0,BOERUM STREET,HUMBOLDT STREET                 ,3.75,3653793,BICYCLE,PASSENGER VEHICLE
301,BROOKLYN,Unspecified,,363       BERGEN STREET                 ,2017-04-19,40.682228,-73.97892,1,0,0,0,,,8.583333333333334,3653909,BICYCLE,PASSENGER VEHICLE
302,BROOKLYN,Failure to Yield Right-of-Way,Unspecified,,2017-04-19,40.61642,-73.97445,1,0,0,0,AVENUE M,MC DONALD AVENUE                ,19.333333333333332,3653995,BICYCLE,PASSENGER VEHICLE
303,,Driver Inattention/Distraction,Unspecified,,2017-04-19,40.730946,-74.006744,1,0,0,0,,HUDSON STREET                   ,21.833333333333332,3654056,BICYCLE,SPORT UTILITY / STATION WAGON
304,,Failure to Yield Right-of-Way,Unspecified,,2017-04-18,40.68468,-74.001335,1,0,0,0,SACKETT STREET,HICKS STREET                    ,8.5,3654075,PASSENGER VEHICLE,BICYCLE
305,MANHATTAN,Driver Inattention/Distraction,Unspecified,471       LENOX AVENUE                  ,2017-04-17,40.813095000000004,-73.94161,1,0,0,0,,,23.0,3654091,BICYCLE,SPORT UTILITY / STATION WAGON
306,MANHATTAN,Pedestrian/Bicyclist/Other Pedestrian Error/Confusion,Pedestrian/Bicyclist/Other Pedestrian Error/Confusion,301       WEST 145 STREET               ,2017-04-18,40.822906,-73.94207,1,0,0,0,,,10.666666666666666,3654095,BICYCLE,
307,BROOKLYN,Unspecified,Unspecified,,2017-04-02,40.673843,-73.92509,1,0,0,0,SAINT MARKS AVENUE,BUFFALO AVENUE                  ,15.0,3654152,BICYCLE,SPORT UTILITY / STATION WAGON
308,QUEENS,Unspecified,,59-45     54 STREET                     ,2017-04-19,40.71585,-73.91369,1,0,0,0,,,10.333333333333334,3654183,BICYCLE,
309,MANHATTAN,Failure to Yield Right-of-Way,Unspecified,,2017-04-19,40.757732,-73.99686,1,0,0,0,10 AVENUE,WEST 39 STREET                  ,18.333333333333332,3654278,SPORT UTILITY / STATION WAGON,BICYCLE
310,,Unsafe Lane Changing,Unsafe Lane Changing,,2017-04-20,40.696259999999995,-73.97446,1,0,0,0,,PARK AVENUE                     ,18.633333333333333,3654381,BICYCLE,PASSENGER VEHICLE
311,BROOKLYN,Unspecified,,,2017-04-21,40.712666,-73.94105,1,0,0,0,POWERS STREET,BUSHWICK AVENUE                 ,1.4166666666666667,3654520,BICYCLE,
312,,Driver Inattention/Distraction,,,2017-04-20,40.677982,-73.791214,1,0,1,0,120 AVENUE,SUTPHIN BOULEVARD               ,15.0,3654523,SPORT UTILITY / STATION WAGON,
313,,Driverless/Runaway Vehicle,Unspecified,,2017-04-21,40.707493,-73.94153,1,0,0,0,,MONTROSE AVENUE                 ,3.0,3654530,BICYCLE,
314,,Other Vehicular,Failure to Yield Right-of-Way,,2017-04-20,40.706142,-73.83176999999999,1,0,0,0,,LEFFERTS BOULEVARD              ,23.75,3654546,BICYCLE,SPORT UTILITY / STATION WAGON
315,MANHATTAN,Driver Inattention/Distraction,Unspecified,,2017-04-20,40.77402,-73.95456,1,0,0,0,2 AVENUE,EAST 80 STREET                  ,13.5,3654659,PICK-UP TRUCK,BICYCLE
316,,Driver Inattention/Distraction,Unspecified,,2017-02-28,,,1,0,0,0,,,22.416666666666668,3623655,PASSENGER VEHICLE,BICYCLE
317,,Pedestrian/Bicyclist/Other Pedestrian Error/Confusion,,,2017-04-08,40.679276,-73.92905999999999,1,0,0,0,UTICA AVENUE,FULTON STREET                   ,16.333333333333332,3654714,BICYCLE,
318,BROOKLYN,Driver Inattention/Distraction,Driver Inattention/Distraction,,2017-04-16,40.6889,-73.92726,1,0,0,0,GATES AVENUE,PATCHEN AVENUE                  ,22.0,3654715,PASSENGER VEHICLE,BICYCLE
319,BROOKLYN,Passenger Distraction,,910       DE KALB AVENUE                ,2017-04-19,40.692772,-73.939125,1,0,0,0,,,7.0,3654717,PASSENGER VEHICLE,BICYCLE
320,MANHATTAN,Traffic Control Disregarded,Unspecified,,2017-04-21,40.76093,-73.96914,1,0,0,0,EAST 57 STREET,LEXINGTON AVENUE                ,10.166666666666666,3654732,SPORT UTILITY / STATION WAGON,BICYCLE
321,QUEENS,Driver Inattention/Distraction,Unspecified,,2017-04-21,40.691315,-73.86721999999999,1,0,0,0,JAMAICA AVENUE,DEXTER COURT                    ,8.633333333333333,3654739,PASSENGER VEHICLE,BICYCLE
322,MANHATTAN,Pedestrian/Bicyclist/Other Pedestrian Error/Confusion,Unspecified,,2017-04-19,40.841076,-73.93977,1,0,0,0,BROADWAY,WEST 168 STREET                 ,10.0,3654747,PASSENGER VEHICLE,BICYCLE
323,MANHATTAN,Pedestrian/Bicyclist/Other Pedestrian Error/Confusion,Unspecified,256       DYCKMAN STREET                ,2017-04-19,40.866516,-73.928474,1,0,0,0,,,19.5,3654789,SPORT UTILITY / STATION WAGON,BICYCLE
324,MANHATTAN,Passing or Lane Usage Improper,Unspecified,,2017-04-19,40.730377000000004,-73.98638000000001,1,0,0,0,EAST 11 STREET,2 AVENUE                        ,19.583333333333332,3654792,PASSENGER VEHICLE,BICYCLE
325,MANHATTAN,Unspecified,Unspecified,302       MOTT STREET                   ,2017-04-19,40.724976,-73.99405,1,0,0,0,,,22.5,3654794,TAXI,BICYCLE
326,MANHATTAN,Driver Inattention/Distraction,Driver Inattention/Distraction,,2017-04-21,40.747627,-73.97674599999999,1,0,0,0,EAST 37 STREET,3 AVENUE                        ,13.25,3654866,BICYCLE,PICK-UP TRUCK
327,,Driver Inattention/Distraction,Driver Inexperience,,2017-04-20,40.662533,-73.94792,1,0,0,0,,NEW YORK AVENUE                 ,14.833333333333334,3654979,SPORT UTILITY / STATION WAGON,BICYCLE
328,BROOKLYN,Unspecified,Unspecified,,2017-04-21,40.6867,-73.9982,1,0,0,0,KANE STREET,HENRY STREET                    ,16.25,3655244,BICYCLE,PASSENGER VEHICLE
329,QUEENS,Unspecified,Unspecified,,2017-04-21,40.714283,-73.8102,1,0,0,0,HOOVER AVENUE,150 STREET                      ,18.0,3655261,BICYCLE,PASSENGER VEHICLE
330,BRONX,Pavement Slippery,Driver Inattention/Distraction,3380      3 AVENUE                      ,2017-04-20,40.827346999999996,-73.90739,1,0,0,0,,,0.0,3655392,BICYCLE,PASSENGER VEHICLE
331,QUEENS,Unspecified,,31-58     51 STREET                     ,2017-04-20,40.755142,-73.90856,1,0,0,0,,,14.416666666666666,3655400,BICYCLE,
332,QUEENS,Driver Inattention/Distraction,Unspecified,,2017-04-20,40.77086,-73.92992,1,0,0,0,30 AVENUE,14 STREET                       ,16.0,3655401,PASSENGER VEHICLE,BICYCLE
333,QUEENS,Driver Inattention/Distraction,Unspecified,,2017-04-22,40.758224,-73.91741,1,0,0,0,42 STREET,BROADWAY                        ,18.0,3655441,SPORT UTILITY / STATION WAGON,BICYCLE
334,MANHATTAN,Unsafe Lane Changing,Unspecified,,2017-04-21,40.756035,-73.98695,1,0,0,0,WEST 42 STREET,7 AVENUE                        ,15.75,3655504,PASSENGER VEHICLE,BICYCLE
335,MANHATTAN,Failure to Yield Right-of-Way,Pedestrian/Bicyclist/Other Pedestrian Error/Confusion,89        EAST 42 STREET                ,2017-04-20,40.75217,-73.97778000000001,1,0,0,0,,,13.183333333333334,3655515,BICYCLE,SPORT UTILITY / STATION WAGON
336,MANHATTAN,Driver Inattention/Distraction,Unspecified,101       WEST 39 STREET                ,2017-04-21,40.753040000000006,-73.985725,1,0,0,0,,,16.65,3655521,PASSENGER VEHICLE,BICYCLE
337,BRONX,Driver Inattention/Distraction,Unspecified,231       EAST 149 STREET               ,2017-04-20,40.817745,-73.92413,1,0,0,0,,,19.816666666666666,3655620,SPORT UTILITY / STATION WAGON,BICYCLE
338,,Failure to Yield Right-of-Way,Unspecified,,2017-03-30,40.772842,-73.92745,1,0,0,0,,18 STREET                       ,15.0,3655647,PICK-UP TRUCK,BICYCLE
339,MANHATTAN,Passing or Lane Usage Improper,Passing or Lane Usage Improper,,2017-04-22,40.707977,-74.00801,1,0,0,0,MAIDEN LANE,WILLIAM STREET                  ,20.666666666666668,3655650,BICYCLE,TAXI
340,,Unspecified,,101       EAST DRIVE                    ,2017-04-21,,,1,0,0,0,,,14.283333333333333,3655688,BICYCLE,
341,,Traffic Control Disregarded,Traffic Control Disregarded,,2017-04-22,40.875492,-73.86052,1,0,0,0,,BRONXWOOD AVENUE                ,18.583333333333332,3655709,BICYCLE,SPORT UTILITY / STATION WAGON
342,BROOKLYN,Glare,Unspecified,,2017-04-17,40.633217,-73.954865,1,0,0,0,EAST 23 STREET,GLENWOOD ROAD                   ,17.833333333333332,3655773,BICYCLE,PASSENGER VEHICLE
343,BROOKLYN,Traffic Control Disregarded,Unspecified,,2017-04-22,40.69579,-73.93313,1,0,0,0,WILLOUGHBY AVENUE,BROADWAY                        ,0.8166666666666667,3655836,BICYCLE,
344,QUEENS,Driver Inattention/Distraction,Unspecified,,2017-04-22,40.740913,-73.95226,1,0,0,0,11 STREET,BORDEN AVENUE                   ,11.333333333333334,3655991,BICYCLE,SPORT UTILITY / STATION WAGON
345,,Passenger Distraction,,,2017-04-07,40.76099,-73.99077,1,0,0,0,,WEST 46 STREET                  ,18.333333333333332,3656253,BICYCLE,
346,,Passenger Distraction,Unspecified,,2017-04-22,40.794785,-73.96431,1,0,0,0,,MANHATTAN AVENUE                ,1.25,3656277,PASSENGER VEHICLE,BICYCLE
347,MANHATTAN,Unspecified,Unspecified,,2017-04-22,40.783245,-73.94473,1,0,0,0,EAST 96 STREET,1 AVENUE                        ,13.466666666666667,3656346,BICYCLE,SPORT UTILITY / STATION WAGON
348,BROOKLYN,Traffic Control Disregarded,Driver Inattention/Distraction,,2017-04-22,40.630127,-73.94481999999999,1,0,0,0,AURELIA COURT,FLATBUSH AVENUE                 ,14.15,3656407,BICYCLE,PASSENGER VEHICLE
349,,Driver Inattention/Distraction,Unspecified,,2017-04-21,40.80123,-73.9577,1,0,0,0,,WEST 111 STREET                 ,22.833333333333332,3656431,BICYCLE,PASSENGER VEHICLE
350,QUEENS,Unspecified,Unspecified,35-15     JUNCTION BOULEVARD            ,2017-04-18,40.753044,-73.871635,1,0,0,0,,,19.5,3656779,BICYCLE,PASSENGER VEHICLE
351,BRONX,Turning Improperly,Unspecified,,2017-04-23,40.826256,-73.88880999999999,1,0,0,0,BRYANT AVENUE,WESTCHESTER AVENUE              ,3.3333333333333335,3655542,BICYCLE,
352,,Unsafe Speed,Pedestrian/Bicyclist/Other Pedestrian Error/Confusion,107       EAST DRIVE                    ,2017-04-23,,,2,0,0,0,,,9.666666666666666,3655693,BICYCLE,BICYCLE
353,,Pedestrian/Bicyclist/Other Pedestrian Error/Confusion,,,2017-04-23,,,1,0,0,0,SAINT GEORGE ROAD,443 LIGHT HOUSE AVENUE          ,11.0,3655720,BICYCLE,
354,BROOKLYN,Driver Inattention/Distraction,Driver Inattention/Distraction,,2017-04-23,40.58667,-73.96615600000001,1,0,0,0,AVENUE Z,OCEAN PARKWAY                   ,14.766666666666667,3655735,BICYCLE,PASSENGER VEHICLE
355,,Unspecified,,,2017-04-23,40.61439,-74.15767,1,0,0,0,LAMBERTS LANE,RICHMOND AVENUE                 ,9.166666666666666,3655796,BICYCLE,
356,QUEENS,Driver Inattention/Distraction,Unspecified,,2017-04-23,40.74082,-73.8571,1,0,0,0,LARUE AVENUE,103 STREET                      ,18.0,3655847,BICYCLE,
357,,Failure to Yield Right-of-Way,Unspecified,,2017-04-23,40.750885,-73.81942,1,0,0,0,KISSENA BOULEVARD,HOLLY AVENUE                    ,19.0,3655974,SPORT UTILITY / STATION WAGON,BICYCLE
358,MANHATTAN,Driver Inattention/Distraction,Unspecified,,2017-04-23,40.778805,-73.947975,1,0,0,0,1 AVENUE,EAST 89 STREET                  ,16.45,3656256,PASSENGER VEHICLE,BICYCLE
359,MANHATTAN,Failure to Yield Right-of-Way,Driver Inattention/Distraction,,2017-04-23,40.809338000000004,-73.95922,1,0,0,0,WEST 120 STREET,AMSTERDAM AVENUE                ,13.666666666666666,3656374,TAXI,BICYCLE
360,MANHATTAN,Driver Inattention/Distraction,Unspecified,,2017-04-23,40.714462,-73.98535,1,0,0,0,EAST BROADWAY,MONTGOMERY STREET               ,13.0,3656378,BICYCLE,PASSENGER VEHICLE
361,QUEENS,Unspecified,Unspecified,,2017-04-23,40.764072,-73.86705,1,0,0,0,GILLMORE STREET,27 AVENUE                       ,14.5,3656384,TAXI,BICYCLE
362,,Brakes Defective,Unspecified,,2017-04-23,40.68628,-73.77701,1,0,0,0,,FOCH BOULEVARD                  ,14.0,3656624,PASSENGER VEHICLE,BICYCLE
363,BROOKLYN,Unspecified,Unspecified,,2017-04-19,40.636448,-73.94513,1,0,0,0,FARRAGUT ROAD,NEW YORK AVENUE                 ,20.0,3657097,BICYCLE,PASSENGER VEHICLE
364,BROOKLYN,Failure to Yield Right-of-Way,Unspecified,,2017-04-18,40.68608,-73.99091,1,0,0,0,WYCKOFF STREET,SMITH STREET                    ,19.0,3657266,SPORT UTILITY / STATION WAGON,BICYCLE
365,MANHATTAN,Reaction to Other Uninvolved Vehicle,Unspecified,120       BROADWAY                      ,2017-04-24,40.708508,-74.01108,1,0,0,0,,,15.416666666666666,3656663,SPORT UTILITY / STATION WAGON,BICYCLE
366,,Driver Inattention/Distraction,,79        WEST DRIVE                    ,2017-04-24,,,1,0,0,0,,,16.5,3656795,BICYCLE,
367,MANHATTAN,Driver Inattention/Distraction,,,2017-04-24,40.75519,-73.97122,1,0,1,0,EAST 49 STREET,3 AVENUE                        ,16.166666666666668,3656799,BICYCLE,
368,MANHATTAN,Driver Inattention/Distraction,,150       EAST 58 STREET                ,2017-04-24,40.761395,-73.96819,1,0,0,0,,,20.1,3656836,BICYCLE,
369,,Unspecified,Unspecified,,2017-04-24,40.68693,-73.95089,1,0,0,0,,NOSTRAND AVENUE                 ,17.466666666666665,3656870,BICYCLE,
370,MANHATTAN,Reaction to Other Uninvolved Vehicle,Unspecified,,2017-04-24,40.72293,-73.98865,1,0,0,0,ALLEN STREET,EAST HOUSTON STREET             ,13.0,3657028,TAXI,BICYCLE
371,QUEENS,Unspecified,Unspecified,,2017-04-24,40.76501,-73.8871,1,0,0,0,82 STREET,ASTORIA BOULEVARD               ,12.416666666666666,3657321,BICYCLE,SPORT UTILITY / STATION WAGON
372,QUEENS,Traffic Control Disregarded,Unspecified,,2017-04-24,40.70787,-73.86950999999999,1,0,0,0,71 AVENUE,80 STREET                       ,8.0,3657539,PASSENGER VEHICLE,BICYCLE
373,,Unspecified,Unspecified,,2017-04-23,40.689353999999994,-73.936325,1,0,0,0,,LEWIS AVENUE                    ,23.666666666666668,3658098,SPORT UTILITY / STATION WAGON,BICYCLE
374,,Driver Inattention/Distraction,Unspecified,,2017-04-05,40.69171,-73.864746,1,0,0,0,,JAMAICA AVENUE                  ,21.883333333333333,3658153,PASSENGER VEHICLE,BICYCLE
375,BROOKLYN,Obstruction/Debris,,,2017-04-25,40.711422,-73.95954,1,0,0,0,SOUTH 3 STREET,ROEBLING STREET                 ,20.416666666666668,3657466,BICYCLE,
376,,Driver Inattention/Distraction,Driver Inattention/Distraction,,2017-04-25,40.742275,-73.989235,1,0,0,0,,WEST 24 STREET                  ,16.333333333333332,3657686,PASSENGER VEHICLE,BICYCLE
377,,Pedestrian/Bicyclist/Other Pedestrian Error/Confusion,Unspecified,GRANT HIGHWAY                           ,2017-04-25,40.838885999999995,-73.921646,1,0,0,0,,,20.833333333333332,3658058,PASSENGER VEHICLE,BICYCLE
378,MANHATTAN,Aggressive Driving/Road Rage,Pedestrian/Bicyclist/Other Pedestrian Error/Confusion,250       MERCER STREET                 ,2017-04-09,40.728367,-73.99544,1,0,0,0,,,14.75,3658215,PASSENGER VEHICLE,BICYCLE
379,,Failure to Yield Right-of-Way,Unspecified,,2017-04-18,40.665718,-73.95687,1,0,0,0,,BEDFORD AVENUE                  ,17.166666666666668,3658307,PASSENGER VEHICLE,BICYCLE
380,MANHATTAN,Passing or Lane Usage Improper,Failure to Yield Right-of-Way,19        EAST 34 STREET                ,2017-04-24,40.748016,-73.98354,1,0,0,0,,,17.0,3658397,TAXI,BICYCLE
381,MANHATTAN,Driver Inattention/Distraction,Pedestrian/Bicyclist/Other Pedestrian Error/Confusion,244       MADISON AVENUE                ,2017-04-23,40.750134,-73.98125,1,0,0,0,,,9.166666666666666,3658744,BICYCLE,TAXI
382,,Driver Inattention/Distraction,Unspecified,,2017-04-13,40.700424,-73.9444,1,0,0,0,,FLUSHING AVENUE                 ,13.55,3658746,PASSENGER VEHICLE,BICYCLE
383,,Failure to Yield Right-of-Way,Unspecified,,2017-04-26,40.660675,-74.00138000000001,1,0,0,0,,27 STREET                       ,11.5,3657595,SPORT UTILITY / STATION WAGON,BICYCLE
384,,Traffic Control Disregarded,Unspecified,,2017-04-26,40.7563,-73.92007,1,0,0,0,,34 AVENUE                       ,15.0,3657848,BICYCLE,SPORT UTILITY / STATION WAGON
385,QUEENS,Unsafe Lane Changing,Unspecified,84-66     250 STREET                    ,2017-04-26,40.734097,-73.71699,1,0,0,0,,,15.5,3657942,BICYCLE,PASSENGER VEHICLE
386,BRONX,Unspecified,Unspecified,,2017-04-26,40.861942,-73.89373,1,0,0,0,ELM PLACE,EAST FORDHAM ROAD               ,18.683333333333334,3658224,BICYCLE,
387,,Unspecified,Unspecified,,2017-04-27,40.658722,-73.97516999999999,1,0,0,0,,11 AVENUE                       ,2.6666666666666665,3658247,PASSENGER VEHICLE,BICYCLE
388,,Failure to Yield Right-of-Way,Unspecified,,2017-04-26,40.695713,-73.926506,1,0,0,0,,EVERGREEN AVENUE                ,20.5,3658288,SPORT UTILITY / STATION WAGON,BICYCLE
389,,Driver Inattention/Distraction,Unspecified,,2017-04-27,40.68916,-73.99263,1,0,0,0,PACIFIC STREET,COURT STREET                    ,18.2,3658482,BICYCLE,PASSENGER VEHICLE
390,,Unspecified,Unspecified,,2017-04-27,40.75829,-73.83431,1,0,0,0,COLLEGE POINT BOULEVARD,ROOSEVELT AVENUE                ,16.333333333333332,3658657,BICYCLE,SPORT UTILITY / STATION WAGON
391,,Driver Inattention/Distraction,Unspecified,,2017-04-27,40.7241,-73.95099,1,0,0,0,,MANHATTAN AVENUE                ,9.166666666666666,3658694,BICYCLE,
392,QUEENS,Failure to Yield Right-of-Way,Unspecified,,2017-04-27,40.743973,-73.8851,1,0,0,0,BROADWAY,BAXTER AVENUE                   ,20.5,3658767,BICYCLE,SPORT UTILITY / STATION WAGON
393,,Pedestrian/Bicyclist/Other Pedestrian Error/Confusion,,,2017-04-28,40.71552,-74.00925,1,0,1,0,,CHAMBERS STREET                 ,0.0,3658865,BICYCLE,
394,BROOKLYN,Driver Inattention/Distraction,Unspecified,,2017-04-14,40.70547,-73.95024000000001,1,0,0,0,UNION AVENUE,BROADWAY                        ,18.133333333333333,3658934,BICYCLE,PASSENGER VEHICLE
395,MANHATTAN,Driver Inattention/Distraction,View Obstructed/Limited,1433      2 AVENUE                      ,2017-04-27,40.770515,-73.95714,1,0,0,0,,,11.416666666666666,3658946,BICYCLE,
396,BROOKLYN,View Obstructed/Limited,Unspecified,,2017-04-25,40.637405,-73.982475,1,0,0,0,15 AVENUE,40 STREET                       ,13.916666666666666,3658947,BICYCLE,PASSENGER VEHICLE
397,BROOKLYN,Driver Inattention/Distraction,Unspecified,,2017-04-27,40.636590000000005,-73.994736,1,0,0,0,49 STREET,NEW UTRECHT AVENUE              ,12.516666666666667,3659063,PASSENGER VEHICLE,BICYCLE
398,BROOKLYN,Unspecified,,,2017-04-28,40.685215,-73.95928,1,0,0,0,GATES AVENUE,CLASSON AVENUE                  ,15.0,3659182,BICYCLE,
399,,Unspecified,,,2017-04-28,40.698246000000005,-73.98055,1,0,0,0,,NAVY STREET                     ,19.25,3659260,BICYCLE,
400,,Driver Inattention/Distraction,Unspecified,,2017-04-26,40.626034000000004,-73.98326999999999,1,0,0,0,18 AVENUE,53 STREET                       ,18.5,3659354,BICYCLE,
401,,Unspecified,Unspecified,,2017-04-28,,,1,0,0,0,,BROOK AVENUE                    ,0.0,3659641,BICYCLE,PASSENGER VEHICLE
402,,Driver Inattention/Distraction,Unspecified,,2017-04-28,40.758972,-73.91901,1,0,0,0,,BROADWAY                        ,15.0,3659698,BICYCLE,PASSENGER VEHICLE
403,QUEENS,Unspecified,Unspecified,,2017-04-28,40.776695000000004,-73.927826,1,0,0,0,ASTORIA PARK SOUTH,SHORE BOULEVARD                 ,19.083333333333332,3659704,BICYCLE,BICYCLE
404,BROOKLYN,Failure to Yield Right-of-Way,Unspecified,,2017-04-28,40.71618,-73.94208499999999,1,0,0,0,SKILLMAN AVENUE,WOODPOINT ROAD                  ,8.25,3660057,BICYCLE,
405,,Failure to Yield Right-of-Way,Unspecified,,2017-04-28,40.71728,-73.95833,1,0,0,0,,BEDFORD AVENUE                  ,22.5,3660061,PASSENGER VEHICLE,BICYCLE
406,BROOKLYN,Unspecified,Unspecified,,2017-04-23,40.649944,-73.96703000000001,1,0,0,0,RUGBY ROAD,CATON AVENUE                    ,18.333333333333332,3660134,PASSENGER VEHICLE,BICYCLE
407,,Failure to Yield Right-of-Way,Unspecified,,2017-04-26,40.644753,-73.92493,1,0,0,0,CLARENDON ROAD,KINGS HIGHWAY                   ,7.333333333333333,3660263,BICYCLE,SPORT UTILITY / STATION WAGON
408,BROOKLYN,View Obstructed/Limited,Unsafe Speed,,2017-04-28,40.69885,-73.938576,1,0,0,0,BROADWAY,PARK AVENUE                     ,21.833333333333332,3660280,TAXI,BICYCLE
409,MANHATTAN,Unspecified,Unspecified,,2017-04-28,40.723022,-73.99882,1,0,0,0,SPRING STREET,BROADWAY                        ,22.333333333333332,3660300,BICYCLE,
410,,Failure to Yield Right-of-Way,Unspecified,,2017-04-28,40.69599,-73.998215,1,0,0,0,MONTAGUE STREET,FURMAN STREET                   ,20.066666666666666,3660369,BICYCLE,
411,QUEENS,Driver Inattention/Distraction,Unspecified,,2017-04-28,40.747032,-73.87937,1,0,0,0,BRITTON AVENUE,FORLEY STREET                   ,18.75,3660409,SPORT UTILITY / STATION WAGON,BICYCLE
412,,Unspecified,Unspecified,,2017-04-28,,,1,0,0,0,79 street,ELLLIOT AVE                     ,15.6,3660460,SPORT UTILITY / STATION WAGON,BICYCLE
413,,Driver Inattention/Distraction,Unspecified,,2017-04-28,40.59287,-73.96878000000001,1,0,0,0,,AVENUE W                        ,20.433333333333334,3660572,SPORT UTILITY / STATION WAGON,BICYCLE
414,,Failure to Yield Right-of-Way,Unspecified,,2017-04-20,,,1,0,0,0,EAST 14 STREET,EMMONS AVENUE                   ,19.5,3660614,MOTORCYCLE,BICYCLE
415,QUEENS,Failure to Yield Right-of-Way,Unspecified,,2017-04-29,40.746353000000006,-73.91617,1,0,0,0,48 STREET,SKILLMAN AVENUE                 ,4.416666666666667,3659333,PASSENGER VEHICLE,BICYCLE
416,,Pedestrian/Bicyclist/Other Pedestrian Error/Confusion,Pedestrian/Bicyclist/Other Pedestrian Error/Confusion,,2017-04-29,40.826397,-73.92116,1,0,0,0,,EAST 161 STREET                 ,8.0,3659340,PASSENGER VEHICLE,BICYCLE
417,,Unspecified,,,2017-04-29,40.861828,-73.89286,1,0,0,0,,MARION AVENUE                   ,20.0,3659583,BICYCLE,
418,MANHATTAN,Driver Inattention/Distraction,Unspecified,,2017-04-29,40.75478,-73.97994,1,0,0,0,WEST 44 STREET,5 AVENUE                        ,22.0,3659625,PASSENGER VEHICLE,BICYCLE
419,,Traffic Control Disregarded,Unspecified,,2017-04-30,40.680473,-73.9614,1,0,0,0,,ATLANTIC AVENUE                 ,5.333333333333333,3659744,BICYCLE,PASSENGER VEHICLE
420,QUEENS,Unspecified,,,2017-04-29,40.71458,-73.73108,1,0,0,0,222 STREET,100 DRIVE                       ,14.583333333333334,3659756,BICYCLE,
421,,Pedestrian/Bicyclist/Other Pedestrian Error/Confusion,Following Too Closely,,2017-04-29,40.731995,-73.99022,1,0,0,0,,4 AVENUE                        ,21.5,3659827,BICYCLE,SPORT UTILITY / STATION WAGON
422,MANHATTAN,Driver Inattention/Distraction,Unspecified,44        SAINT MARKS PLACE             ,2017-04-29,40.72835,-73.98713000000001,1,0,0,0,,,22.166666666666668,3659829,BICYCLE,SPORT UTILITY / STATION WAGON
423,,Driver Inexperience,,85        EAST DRIVE                    ,2017-04-29,40.79423,-73.95971999999999,1,0,0,0,,,11.55,3659837,BICYCLE,
424,,Driver Inexperience,Driver Inexperience,61        CENTER DRIVE                  ,2017-04-29,,,3,0,0,0,,,15.75,3659838,BICYCLE,BICYCLE
425,,Driver Inexperience,,99        EAST DRIVE                    ,2017-04-29,,,1,0,0,0,,,18.0,3659842,BICYCLE,
426,,Pedestrian/Bicyclist/Other Pedestrian Error/Confusion,,85        EAST DRIVE                    ,2017-04-29,,,1,0,0,0,,,16.333333333333332,3659843,BICYCLE,
427,,Pedestrian/Bicyclist/Other Pedestrian Error/Confusion,,71        EAST DRIVE                    ,2017-04-29,,,1,0,0,0,,,17.583333333333332,3659844,BICYCLE,
428,BROOKLYN,Pedestrian/Bicyclist/Other Pedestrian Error/Confusion,Unspecified,,2017-04-29,40.664654,-73.916275,1,0,0,0,BLAKE AVENUE,SARATOGA AVENUE                 ,19.45,3659845,BICYCLE,TAXI
429,BROOKLYN,Pedestrian/Bicyclist/Other Pedestrian Error/Confusion,Unspecified,,2017-04-30,40.626509999999996,-74.02386,1,0,0,0,5 AVENUE,79 STREET                       ,12.416666666666666,3660248,BICYCLE,SPORT UTILITY / STATION WAGON
430,BROOKLYN,Unspecified,Unspecified,1554      FULTON STREET                 ,2017-04-29,40.6798,-73.93885,1,0,0,0,,,11.9,3660308,BICYCLE,PASSENGER VEHICLE
431,,Driver Inexperience,Unspecified,,2017-04-30,40.866066,-73.89438,1,0,0,0,,GRAND CONCOURSE                 ,17.166666666666668,3660393,BICYCLE,
432,BROOKLYN,Unspecified,Unspecified,4716      AVENUE H                      ,2017-04-29,40.632670000000005,-73.93101999999999,1,0,0,0,,,14.0,3660431,BICYCLE,
433,,Passing or Lane Usage Improper,Backing Unsafely,,2017-04-30,40.723236,-73.912575,1,0,0,0,,MAURICE AVENUE                  ,6.55,3660507,BICYCLE,PASSENGER VEHICLE
434,,Failure to Yield Right-of-Way,Driver Inattention/Distraction,,2017-04-30,40.85667,-73.86569,1,0,0,0,HOLLAND AVENUE,PELHAM PARKWAY SOUTH            ,21.5,3660594,PASSENGER VEHICLE,BICYCLE
435,MANHATTAN,Failure to Yield Right-of-Way,Unspecified,,2017-04-28,40.74044,-74.00203,1,0,0,0,WEST 15 STREET,8 AVENUE                        ,23.0,3660765,BICYCLE,
436,MANHATTAN,Unspecified,Unspecified,243       WEST 125 STREET               ,2017-04-30,40.809517,-73.9496,1,0,0,0,,,14.5,3660809,PASSENGER VEHICLE,BICYCLE
437,,Passenger Distraction,Unspecified,,2017-04-29,40.763733,-73.962074,1,0,0,0,,2 AVENUE                        ,20.45,3660923,BICYCLE,
438,MANHATTAN,Passing or Lane Usage Improper,Passing or Lane Usage Improper,822       10 AVENUE                     ,2017-04-30,40.767520000000005,-73.989716,1,0,0,0,,,21.75,3660944,BICYCLE,TAXI
439,MANHATTAN,Unsafe Lane Changing,Unspecified,,2017-04-27,40.76542,-73.98383000000001,1,0,0,0,8 AVENUE,WEST 55 STREET                  ,14.0,3660980,PASSENGER VEHICLE,BICYCLE
440,BROOKLYN,Failure to Yield Right-of-Way,Unspecified,,2017-04-28,40.697829999999996,-73.93677,1,0,0,0,ARION PLACE,BROADWAY                        ,17.016666666666666,3661005,BICYCLE,
441,BROOKLYN,Unspecified,,2         GROVE STREET                  ,2017-04-29,40.690502,-73.92354,1,0,0,0,,,20.0,3661025,PASSENGER VEHICLE,BICYCLE
442,BROOKLYN,Unspecified,Unspecified,,2017-04-30,40.634192999999996,-73.96988,1,0,0,0,EAST 8 STREET,18 AVENUE                       ,20.433333333333334,3661050,BICYCLE,
443,,Unspecified,,,2017-04-30,40.790314,-73.94769000000001,1,0,0,0,,LEXINGTON AVENUE                ,14.75,3661225,BICYCLE,PASSENGER VEHICLE
444,MANHATTAN,Aggressive Driving/Road Rage,Unspecified,,2017-04-28,40.76422,-73.98099,1,0,0,0,WEST 55 STREET,7 AVENUE                        ,21.883333333333333,3661369,TAXI,TAXI
445,MANHATTAN,Driver Inattention/Distraction,Unspecified,,2017-04-27,40.738796,-73.97716,1,0,0,0,1 AVENUE,EAST 26 STREET                  ,14.916666666666666,3661374,PASSENGER VEHICLE,BICYCLE
446,MANHATTAN,Pedestrian/Bicyclist/Other Pedestrian Error/Confusion,Driver Inattention/Distraction,,2017-05-01,,,1,0,0,0,east 48 street,second ave                      ,17.583333333333332,3661129,BICYCLE,PASSENGER VEHICLE
447,QUEENS,Driver Inattention/Distraction,Passing or Lane Usage Improper,98-30     57 AVENUE                     ,2017-05-01,40.738009999999996,-73.86123,1,0,0,0,,,16.1,3661221,SPORT UTILITY / STATION WAGON,BICYCLE
448,QUEENS,Failure to Yield Right-of-Way,Unspecified,,2017-05-01,40.76027,-73.80400999999999,1,0,0,0,SANFORD AVENUE,162 STREET                      ,18.2,3661255,BICYCLE,SPORT UTILITY / STATION WAGON
449,BROOKLYN,Failure to Yield Right-of-Way,Pedestrian/Bicyclist/Other Pedestrian Error/Confusion,65        WHIPPLE STREET                ,2017-05-01,40.701572,-73.9443,1,0,0,0,,,16.916666666666668,3661278,PASSENGER VEHICLE,BICYCLE
450,MANHATTAN,Unspecified,Unspecified,,2017-05-01,40.779495000000004,-73.9535,1,0,0,0,EAST 87 STREET,3 AVENUE                        ,13.083333333333334,3661285,BICYCLE,PASSENGER VEHICLE
451,BRONX,Driver Inattention/Distraction,Driver Inattention/Distraction,,2017-05-01,40.83613,-73.88987,1,0,0,0,EAST 173 STREET,BOSTON ROAD                     ,14.25,3661286,BICYCLE,
452,MANHATTAN,Unsafe Lane Changing,Unspecified,,2017-05-01,40.865547,-73.92728000000001,1,0,0,0,BROADWAY,DYCKMAN STREET                  ,18.833333333333332,3661412,SPORT UTILITY / STATION WAGON,BICYCLE
453,BROOKLYN,Failure to Yield Right-of-Way,Unspecified,,2017-04-29,40.60115,-73.97839,1,0,0,0,WEST 6 STREET,AVENUE S                        ,14.5,3661435,BICYCLE,
454,BROOKLYN,Unsafe Speed,Unspecified,173       HIMROD STREET                 ,2017-05-01,40.697887,-73.92204,1,0,0,0,,,19.916666666666668,3661470,BICYCLE,PASSENGER VEHICLE
455,BROOKLYN,Unspecified,,,2017-04-30,40.72552,-73.9575,1,0,0,0,FRANKLIN STREET,MESEROLE AVENUE                 ,0.5,3661561,BICYCLE,
456,,Failure to Yield Right-of-Way,Unspecified,,2017-05-01,40.68444,-73.83192,1,0,0,0,110 STREET,LIBERTY AVENUE                  ,16.25,3661608,BICYCLE,PASSENGER VEHICLE
457,MANHATTAN,Failure to Yield Right-of-Way,Unspecified,,2017-04-28,40.718143,-73.993835,1,0,0,0,GRAND STREET,CHRYSTIE STREET                 ,22.5,3661677,PICK-UP TRUCK,BICYCLE
458,BROOKLYN,Driver Inattention/Distraction,Driver Inattention/Distraction,,2017-04-29,40.680504,-73.92857,1,0,0,0,REID AVENUE,CHAUNCEY STREET                 ,20.4,3661728,PASSENGER VEHICLE,BICYCLE
459,BROOKLYN,Failure to Yield Right-of-Way,Unspecified,,2017-05-01,40.681854,-73.98004,1,0,0,0,SAINT MARKS PLACE,4 AVENUE                        ,17.75,3661803,PASSENGER VEHICLE,BICYCLE
460,BRONX,Turning Improperly,Unspecified,,2017-04-30,40.817196,-73.895325,1,0,0,0,SOUTHERN BOULEVARD,INTERVALE AVENUE                ,14.966666666666667,3661894,PASSENGER VEHICLE,BICYCLE
461,BRONX,Unspecified,,,2017-04-28,40.836132,-73.85014,1,0,0,0,LYON AVENUE,DORIS STREET                    ,16.25,3662061,BICYCLE,
462,BROOKLYN,Pedestrian/Bicyclist/Other Pedestrian Error/Confusion,Unspecified,,2017-05-01,40.629425,-73.99795,1,0,0,0,13 AVENUE,59 STREET                       ,18.5,3662159,BICYCLE,PASSENGER VEHICLE
463,BROOKLYN,Driver Inattention/Distraction,Driver Inattention/Distraction,,2017-04-30,40.64138,-73.969406,1,0,0,0,AVENUE C,CONEY ISLAND AVENUE             ,21.266666666666666,3662275,SPORT UTILITY / STATION WAGON,BICYCLE
464,,Passing or Lane Usage Improper,Unspecified,,2017-05-01,40.795466999999995,-73.94605,1,0,0,0,,PARK AVENUE                     ,20.5,3662284,BICYCLE,
465,BROOKLYN,Unspecified,Unspecified,,2017-05-02,40.701267,-73.980736,1,0,0,0,YORK STREET,NAVY STREET                     ,11.25,3661489,BICYCLE,PASSENGER VEHICLE
466,BROOKLYN,Pedestrian/Bicyclist/Other Pedestrian Error/Confusion,Unspecified,,2017-05-02,40.592968,-73.9482,1,0,0,0,EAST 22 STREET,AVENUE X                        ,19.0,3661927,SPORT UTILITY / STATION WAGON,BICYCLE
467,BROOKLYN,Unspecified,Unspecified,1130      AVENUE Z                      ,2017-05-02,40.587456,-73.95893000000001,1,0,0,0,,,15.316666666666666,3662000,PICK-UP TRUCK,BICYCLE
468,BROOKLYN,Traffic Control Disregarded,Unspecified,,2017-05-02,40.67239,-73.87463000000001,1,0,0,0,FOUNTAIN AVENUE,SUTTER AVENUE                   ,17.0,3662005,BICYCLE,SPORT UTILITY / STATION WAGON
469,MANHATTAN,Driver Inattention/Distraction,Driver Inattention/Distraction,,2017-05-02,40.789673,-73.96986,1,0,0,0,WEST 91 STREET,COLUMBUS AVENUE                 ,17.166666666666668,3662127,TAXI,BICYCLE
470,BRONX,Driver Inattention/Distraction,Driver Inexperience,216       BEDFORD PARK BLVD             ,2017-05-02,,,1,0,0,0,,,23.25,3662205,BICYCLE,PASSENGER VEHICLE
471,MANHATTAN,Driver Inattention/Distraction,Unspecified,663       5 AVENUE                      ,2017-05-02,40.760098,-73.97606,1,0,0,0,,,17.0,3662258,BICYCLE,PASSENGER VEHICLE
472,QUEENS,Driver Inattention/Distraction,Driver Inattention/Distraction,,2017-05-02,40.74511,-73.90864,1,0,0,0,ROOSEVELT AVENUE,56 STREET                       ,20.166666666666668,3662339,BICYCLE,SPORT UTILITY / STATION WAGON
473,MANHATTAN,Pedestrian/Bicyclist/Other Pedestrian Error/Confusion,Pedestrian/Bicyclist/Other Pedestrian Error/Confusion,,2017-05-02,40.71008,-74.01639,1,0,0,0,SOUTH END AVENUE,ALBANY STREET                   ,15.616666666666667,3662479,BICYCLE,SPORT UTILITY / STATION WAGON
474,MANHATTAN,Glare,Unspecified,,2017-05-02,40.84802,-73.940445,1,0,0,0,PINEHURST AVENUE,WEST 177 STREET                 ,18.75,3662829,PASSENGER VEHICLE,BICYCLE
475,QUEENS,Driver Inattention/Distraction,Driver Inattention/Distraction,,2017-04-28,40.745594,-73.9034,1,0,0,0,ROOSEVELT AVENUE,61 STREET                       ,8.5,3663106,BICYCLE,SPORT UTILITY / STATION WAGON
476,BROOKLYN,Pedestrian/Bicyclist/Other Pedestrian Error/Confusion,Driver Inattention/Distraction,519       PARKSIDE AVENUE               ,2017-05-03,40.65593,-73.95566,1,0,0,0,,,7.75,3662598,SPORT UTILITY / STATION WAGON,BICYCLE
477,MANHATTAN,Passing or Lane Usage Improper,Unspecified,,2017-05-03,40.767494,-73.95933000000001,1,0,0,0,2 AVENUE,EAST 70 STREET                  ,14.383333333333333,3662619,PASSENGER VEHICLE,BICYCLE
478,,Passing or Lane Usage Improper,Passing or Lane Usage Improper,,2017-05-03,40.707462,-74.00404,1,0,0,0,FULTON STREET,WATER STREET                    ,16.583333333333332,3662678,BICYCLE,TAXI
479,BROOKLYN,Pedestrian/Bicyclist/Other Pedestrian Error/Confusion,Unspecified,1348      GATES AVENUE                  ,2017-05-03,40.695568,-73.91609,1,0,0,0,,,12.066666666666666,3662797,SPORT UTILITY / STATION WAGON,BICYCLE
480,BROOKLYN,Driver Inattention/Distraction,Unspecified,1113      HALSEY STREET                 ,2017-05-03,40.689278,-73.91175,1,0,0,0,,,21.033333333333335,3662803,BICYCLE,
481,BROOKLYN,Failure to Yield Right-of-Way,Unspecified,,2017-05-03,40.71759,-73.94995,1,0,0,0,FROST STREET,LORIMER STREET                  ,16.5,3662825,SPORT UTILITY / STATION WAGON,BICYCLE
482,MANHATTAN,Obstruction/Debris,Unspecified,,2017-05-03,40.7224,-73.99165,1,0,0,0,STANTON STREET,CHRYSTIE STREET                 ,10.0,3662934,PASSENGER VEHICLE,BICYCLE
483,BROOKLYN,Following Too Closely,Unspecified,,2017-05-04,40.626545,-73.94100999999999,1,0,0,0,EAST 36 STREET,FLATBUSH AVENUE                 ,14.666666666666666,3663127,BICYCLE,PASSENGER VEHICLE
484,BROOKLYN,Driver Inattention/Distraction,,541       WYTHE AVENUE                  ,2017-05-04,40.705420000000004,-73.96666,1,0,0,0,,,23.083333333333332,3663165,BICYCLE,
485,BRONX,Pedestrian/Bicyclist/Other Pedestrian Error/Confusion,View Obstructed/Limited,1653      WHITE PLAINS ROAD             ,2017-05-04,40.842617,-73.865234,1,0,0,0,,,17.916666666666668,3663243,BICYCLE,PASSENGER VEHICLE
486,MANHATTAN,Unspecified,Unspecified,,2017-05-04,40.7773,-73.98259,1,0,0,0,WEST 70 STREET,AMSTERDAM AVENUE                ,12.583333333333334,3663289,TAXI,BICYCLE
487,BROOKLYN,Following Too Closely,Unspecified,,2017-05-04,40.634617,-74.02353000000001,1,0,0,0,4 AVENUE,BAY RIDGE AVENUE                ,9.066666666666666,3663387,BICYCLE,
488,QUEENS,Passing or Lane Usage Improper,Unspecified,,2017-05-04,40.756496000000006,-73.820145,1,0,0,0,SYRINGA PLACE,BEECH AVENUE                    ,18.833333333333332,3663400,BICYCLE,PASSENGER VEHICLE
489,,Backing Unsafely,Unspecified,,2017-05-04,40.725204,-74.01005,1,0,0,0,,WASHINGTON STREET               ,19.0,3663408,PASSENGER VEHICLE,BICYCLE
490,QUEENS,Driver Inattention/Distraction,Driver Inattention/Distraction,,2017-05-04,40.748146000000006,-73.90426,1,0,0,0,38 AVENUE,59 STREET                       ,19.5,3663495,BICYCLE,PASSENGER VEHICLE
491,MANHATTAN,Driver Inattention/Distraction,Unspecified,,2017-05-04,40.759624,-73.970085,1,0,0,0,LEXINGTON AVENUE,EAST 55 STREET                  ,15.0,3663498,PASSENGER VEHICLE,BICYCLE
492,,Failure to Yield Right-of-Way,Unspecified,,2017-05-04,40.748985,-73.979965,1,0,0,0,,PARK AVENUE                     ,20.583333333333332,3663503,BICYCLE,TAXI
493,MANHATTAN,Failure to Yield Right-of-Way,Unspecified,72        BARUCH DRIVE                  ,2017-05-04,40.716965,-73.97825999999999,1,0,0,0,,,9.0,3663513,BICYCLE,PASSENGER VEHICLE
494,BROOKLYN,Other Vehicular,Unspecified,1288      FULTON STREET                 ,2017-04-28,40.680355,-73.94906,2,0,0,0,,,16.25,3663518,PASSENGER VEHICLE,BICYCLE
495,BROOKLYN,Driver Inattention/Distraction,Unspecified,323       NOSTRAND AVENUE               ,2017-05-05,40.687275,-73.95095,1,0,0,0,,,1.1666666666666667,3663543,BICYCLE,PICK-UP TRUCK
496,,Passenger Distraction,Unspecified,,2017-05-04,40.771152,-73.97966,1,0,0,0,,CENTRAL PARK WEST               ,19.2,3663552,TAXI,BICYCLE
497,,Unspecified,,,2017-05-04,40.6952,-73.92844000000001,1,0,0,0,,BUSHWICK AVENUE                 ,23.833333333333332,3663601,BICYCLE,
498,BROOKLYN,Driver Inattention/Distraction,Driver Inattention/Distraction,,2017-05-04,40.67743,-73.87591,1,0,0,0,FOUNTAIN AVENUE,LIBERTY AVENUE                  ,16.166666666666668,3663641,PASSENGER VEHICLE,BICYCLE
499,,Driver Inattention/Distraction,Driver Inattention/Distraction,,2017-05-04,40.781315,-73.94614,1,0,0,0,,EAST 93 STREET                  ,21.833333333333332,3663650,BICYCLE,TAXI
500,MANHATTAN,Driver Inattention/Distraction,Unspecified,30        EAST 20 STREET                ,2017-05-04,40.738785,-73.98886999999999,1,0,0,0,,,18.0,3663662,BICYCLE,TAXI
501,,Driver Inattention/Distraction,Driver Inattention/Distraction,,2017-05-04,40.681137,-73.95567,1,0,0,0,,FULTON STREET                   ,21.933333333333334,3663666,PASSENGER VEHICLE,BICYCLE
502,QUEENS,Failure to Yield Right-of-Way,Unspecified,,2017-05-04,40.748993,-73.89686999999999,1,0,0,0,69 STREET,BROADWAY                        ,9.5,3663678,BICYCLE,SPORT UTILITY / STATION WAGON
503,,Driver Inattention/Distraction,View Obstructed/Limited,,2017-04-29,40.718987,-73.892136,1,0,0,0,68 STREET,ELIOT AVENUE                    ,11.5,3663706,BICYCLE,
504,,Passing or Lane Usage Improper,Unspecified,WEST 26 STREET                          ,2017-05-03,40.746002000000004,-73.99427,1,0,0,0,,,10.333333333333334,3663709,PASSENGER VEHICLE,BICYCLE
505,BROOKLYN,Driver Inattention/Distraction,Unspecified,,2017-05-04,40.628845,-73.99855,1,0,0,0,13 AVENUE,60 STREET                       ,9.1,3663757,PASSENGER VEHICLE,BICYCLE
506,,Failure to Yield Right-of-Way,Unspecified,,2017-05-02,,,1,0,0,0,seamen avenue,riverside drive                 ,15.0,3663768,BICYCLE,PASSENGER VEHICLE
507,,Unspecified,,,2017-04-23,40.650703,-74.00449,1,0,0,0,,5 AVENUE                        ,13.833333333333334,3663780,BICYCLE,
508,MANHATTAN,Pedestrian/Bicyclist/Other Pedestrian Error/Confusion,Pedestrian/Bicyclist/Other Pedestrian Error/Confusion,2054      7 AVENUE                      ,2017-05-02,40.80743,-73.94946999999999,1,0,0,0,,,19.916666666666668,3663811,BICYCLE,PASSENGER VEHICLE
509,,Pedestrian/Bicyclist/Other Pedestrian Error/Confusion,,,2017-03-18,40.704388,-73.994576,1,0,0,0,,,17.166666666666668,3634352,BICYCLE,
510,QUEENS,Driver Inattention/Distraction,Driver Inattention/Distraction,,2017-05-05,40.702606,-73.81324000000001,1,0,0,0,89 AVENUE,139 STREET                      ,23.983333333333334,3664110,BICYCLE,PASSENGER VEHICLE
511,MANHATTAN,Unspecified,,49        1 AVENUE                      ,2017-04-22,40.724486999999996,-73.98759,1,0,0,0,,,2.15,3664212,BICYCLE,
512,BROOKLYN,Unspecified,Unspecified,,2017-05-02,40.727753,-73.95725,1,0,0,0,OAK STREET,FRANKLIN STREET                 ,19.5,3664259,SPORT UTILITY / STATION WAGON,BICYCLE
513,QUEENS,Driver Inattention/Distraction,Following Too Closely,35-05     JUNCTION BOULEVARD            ,2017-05-05,40.753063,-73.87165,1,0,0,0,,,14.0,3664328,BICYCLE,
514,QUEENS,Unspecified,Unspecified,37-54     102 STREET                    ,2017-05-05,40.752537,-73.865166,1,0,0,0,,,19.333333333333332,3664336,BICYCLE,SPORT UTILITY / STATION WAGON
515,BROOKLYN,Unspecified,,1040      SAINT JOHNS PLACE             ,2017-05-03,40.671271999999995,-73.943726,1,0,0,0,,,19.833333333333332,3664451,BICYCLE,
516,QUEENS,Turning Improperly,Unspecified,37-20     30 AVENUE                     ,2017-05-04,40.764534000000005,-73.91639,1,0,0,0,,,19.5,3664505,SPORT UTILITY / STATION WAGON,BICYCLE
517,QUEENS,Driver Inattention/Distraction,Unspecified,,2017-05-05,40.700665,-73.8961,1,0,0,0,DECATUR STREET,MYRTLE AVENUE                   ,18.333333333333332,3664592,PASSENGER VEHICLE,BICYCLE
518,QUEENS,Unspecified,Unspecified,,2017-05-05,,,1,0,0,0,WOODWARD AVENUE,STANHOPE STREET                 ,20.666666666666668,3664593,SPORT UTILITY / STATION WAGON,BICYCLE
519,MANHATTAN,Unspecified,Unspecified,92        CLINTON STREET                ,2017-04-29,40.71848,-73.98538,1,0,0,0,,,17.75,3664609,PASSENGER VEHICLE,BICYCLE
520,,Driver Inattention/Distraction,Driver Inattention/Distraction,,2017-05-05,40.830143,-73.92858000000001,1,0,0,0,,JEROME AVENUE                   ,21.5,3664677,SPORT UTILITY / STATION WAGON,BICYCLE
521,BROOKLYN,Driver Inattention/Distraction,Driver Inattention/Distraction,,2017-04-30,40.641690000000004,-73.96949000000001,1,0,0,0,SLOCUM PLACE,CONEY ISLAND AVENUE             ,21.266666666666666,3664718,BICYCLE,SPORT UTILITY / STATION WAGON
522,,Unspecified,Unspecified,,2016-07-29,,,1,0,0,0,,,13.116666666666667,3490778,PASSENGER VEHICLE,BICYCLE
523,BRONX,Failure to Yield Right-of-Way,Unspecified,,2017-05-05,40.8504,-73.90697,1,0,0,0,EAST TREMONT AVENUE,CRESTON AVENUE                  ,2.25,3664724,PASSENGER VEHICLE,BICYCLE
524,,Unspecified,,,2017-05-03,,,1,0,0,0,FOSTER AVENUE,FLATBUSH AVENUE                 ,20.25,3664739,PASSENGER VEHICLE,BICYCLE
525,MANHATTAN,Unspecified,Unspecified,,2017-05-05,40.783359999999995,-73.95489,1,0,0,0,EAST 91 STREET,PARK AVENUE                     ,13.833333333333334,3664977,PASSENGER VEHICLE,BICYCLE
526,,Unspecified,Unspecified,,2017-05-05,40.740746,-73.87173,1,0,0,0,,92 STREET                       ,18.416666666666668,3665098,BICYCLE,SPORT UTILITY / STATION WAGON
527,MANHATTAN,Pedestrian/Bicyclist/Other Pedestrian Error/Confusion,,,2017-05-04,40.75228,-73.9897,1,0,1,0,WEST 36 STREET,7 AVENUE                        ,15.333333333333334,3665174,BICYCLE,
528,MANHATTAN,Unspecified,Unspecified,32        WEST 18 STREET                ,2017-04-28,40.739000000000004,-73.993,1,0,0,0,,,18.75,3665333,BICYCLE,PASSENGER VEHICLE
529,MANHATTAN,Failure to Yield Right-of-Way,Unspecified,815       BROADWAY                      ,2017-05-04,40.732983000000004,-73.99118,1,0,0,0,,,21.0,3665401,BICYCLE,BICYCLE
530,QUEENS,Failure to Yield Right-of-Way,Unspecified,,2017-05-05,40.680415999999994,-73.84389499999999,1,0,0,0,LIBERTY AVENUE,95 STREET                       ,22.0,3665558,BICYCLE,
531,,Driver Inattention/Distraction,Unspecified,,2017-04-26,40.682487,-73.979614,1,0,0,0,,4 AVENUE                        ,21.0,3657988,SPORT UTILITY / STATION WAGON,BICYCLE
532,,Following Too Closely,Unspecified,,2017-04-18,40.72588,-73.941696,1,0,0,0,,KINGSLAND AVENUE                ,12.333333333333334,3652946,BICYCLE,PICK-UP TRUCK
533,BROOKLYN,Passing or Lane Usage Improper,Driver Inattention/Distraction,,2017-05-06,40.70235,-73.98470999999999,1,0,0,0,BRIDGE STREET,FRONT STREET                    ,12.133333333333333,3664361,BICYCLE,SPORT UTILITY / STATION WAGON
534,BROOKLYN,Failure to Yield Right-of-Way,Unspecified,,2017-05-06,40.709755,-73.95707,1,0,0,0,MARCY AVENUE,SOUTH 4 STREET                  ,13.083333333333334,3664771,BICYCLE,PASSENGER VEHICLE
535,BROOKLYN,Failure to Yield Right-of-Way,Unspecified,,2017-05-06,40.717033,-73.95644,1,0,0,0,NORTH 7 STREET,DRIGGS AVENUE                   ,15.0,3665005,BICYCLE,PASSENGER VEHICLE
536,BROOKLYN,Driver Inattention/Distraction,Unspecified,969       GATES AVENUE                  ,2017-05-06,40.688990000000004,-73.92651,1,0,0,0,,,10.0,3665073,PASSENGER VEHICLE,BICYCLE
537,,Traffic Control Disregarded,Unspecified,,2017-05-06,40.67035,-73.89743,1,0,0,0,,BELMONT AVENUE                  ,14.216666666666667,3665077,PASSENGER VEHICLE,BICYCLE
538,QUEENS,Driver Inattention/Distraction,Unspecified,,2017-05-06,40.74403,-73.85869,1,0,0,0,104 STREET,CORONA AVENUE                   ,12.5,3665106,PASSENGER VEHICLE,BICYCLE
539,QUEENS,Other Vehicular,Unspecified,,2017-05-06,40.743034,-73.85946,1,0,0,0,CHRISTIE AVENUE,103 STREET                      ,20.25,3665109,PASSENGER VEHICLE,BICYCLE
540,BROOKLYN,Unspecified,Unspecified,,2017-05-06,40.641365,-73.94179,1,0,0,0,EAST 37 STREET,AVENUE D                        ,19.416666666666668,3665212,BICYCLE,PASSENGER VEHICLE
541,BROOKLYN,View Obstructed/Limited,Pedestrian/Bicyclist/Other Pedestrian Error/Confusion,,2017-05-06,40.677162,-73.97245,1,0,0,0,CARLTON AVENUE,FLATBUSH AVENUE                 ,16.333333333333332,3665285,PASSENGER VEHICLE,BICYCLE
542,MANHATTAN,Driver Inattention/Distraction,Unspecified,541       AVENUE OF THE AMERICAS        ,2017-05-06,40.73773,-73.99659,1,0,0,0,,,22.5,3665299,PICK-UP TRUCK,BICYCLE
543,MANHATTAN,Following Too Closely,Passenger Distraction,,2017-05-06,40.728794,-74.00044,1,0,0,0,SULLIVAN STREET,BLEECKER STREET                 ,20.333333333333332,3665425,BICYCLE,TAXI
544,MANHATTAN,Driver Inattention/Distraction,Unspecified,175       SHERMAN AVENUE                ,2017-05-06,40.864864000000004,-73.9225,1,0,0,0,,,1.0,3665492,PASSENGER VEHICLE,BICYCLE
545,BRONX,Following Too Closely,Unspecified,,2017-05-06,40.816555,-73.91677,1,0,0,0,3 AVENUE,WESTCHESTER AVENUE              ,14.65,3665551,BICYCLE,PASSENGER VEHICLE
546,MANHATTAN,Failure to Yield Right-of-Way,Unspecified,,2017-05-06,40.72639,-73.9918,1,0,0,0,EAST 3 STREET,BOWERY                          ,21.0,3665553,BICYCLE,PASSENGER VEHICLE
547,QUEENS,Driver Inattention/Distraction,Unspecified,,2017-05-06,40.75313,-73.71528,1,0,0,0,LANGSTON AVENUE,73 AVENUE                       ,12.25,3666002,PASSENGER VEHICLE,BICYCLE
548,BROOKLYN,Pedestrian/Bicyclist/Other Pedestrian Error/Confusion,Unspecified,1048      BROOKLYN AVENUE               ,2017-05-07,40.64795,-73.94348000000001,1,0,0,0,,,9.216666666666667,3664778,BICYCLE,PASSENGER VEHICLE
